[{"id":"wd-Q128996","title":"Battle of Akroinon","lat":38.75,"lng":30.533333,"startYear":740,"category":"war","wikiTitle":"Battle of Akroinon"},{"id":"wd-Q130861","title":"Battle of Kursk","lat":51.7,"lng":36.1,"startYear":1943,"category":"war","wikiTitle":"Battle of Kursk"},{"id":"wd-Q131969","title":"Battle of Thermopylae","lat":38.795833333,"lng":22.536944444,"startYear":-479,"category":"war","wikiTitle":"Battle of Thermopylae"},{"id":"wd-Q134114","title":"Battle of Austerlitz","lat":49.128055555,"lng":16.7625,"startYear":1805,"category":"war","wikiTitle":"Battle of Austerlitz"},{"id":"wd-Q135468","title":"Battle of Haw's Shop","lat":37.676,"lng":-77.3118,"startYear":1864,"category":"war","wikiTitle":"Battle of Haw's Shop"},{"id":"wd-Q136344","title":"Battle of Köse Dağ","lat":40.25,"lng":39.55,"startYear":1243,"category":"war","wikiTitle":"Battle of Köse Dağ"},{"id":"wd-Q137567","title":"Battle of Asculum","lat":41.995,"lng":13.547222,"startYear":-88,"category":"war","wikiTitle":"Battle of Asculum"},{"id":"wd-Q138025","title":"Siege of Veprik","lat":50.106666666,"lng":29.805833333,"startYear":1708,"category":"war","wikiTitle":"Siege of Veprik"},{"id":"wd-Q139808","title":"Battle of the Maureaco Fields","lat":49,"lng":4.5,"startYear":451,"category":"war","wikiTitle":"Battle of the Maureaco Fields"},{"id":"wd-Q140439","title":"Battle of Markuszów","lat":51.375277777,"lng":22.256944444,"startYear":1792,"category":"war","wikiTitle":"Battle of Markuszów"},{"id":"wd-Q145588","title":"Battle of Gumbinnen","lat":54.6,"lng":22.2,"startYear":1914,"category":"war","wikiTitle":"Battle of Gumbinnen"},{"id":"wd-Q149560","title":"Battle of Stallupönen","lat":54.630555555,"lng":22.573333333,"startYear":1914,"category":"war","wikiTitle":"Battle of Stallupönen"},{"id":"wd-Q151290","title":"Battle of Moscow","lat":55.752222222,"lng":37.632222222,"startYear":1941,"category":"war","wikiTitle":"Battle of Moscow"},{"id":"wd-Q152295","title":"Battle of Worringen","lat":51.0425,"lng":6.887777777,"startYear":1288,"category":"war","wikiTitle":"Battle of Worringen"},{"id":"wd-Q152486","title":"Battle of Poltava","lat":49.631388888,"lng":34.552777777,"startYear":1709,"category":"war","wikiTitle":"Battle of Poltava"},{"id":"wd-Q153702","title":"Battle of Beroia","lat":42.43333333,"lng":25.65,"startYear":1122,"category":"war","wikiTitle":"Battle of Beroia"},{"id":"wd-Q153712","title":"Battle of Parabiago","lat":45.55,"lng":8.85,"startYear":1339,"category":"war","wikiTitle":"Battle of Parabiago"},{"id":"wd-Q154426","title":"Battle of Jena–Auerstedt","lat":50.95,"lng":11.575,"startYear":1806,"category":"war","wikiTitle":"Battle of Jena–Auerstedt"},{"id":"wd-Q154635","title":"Battle of Blenheim","lat":48.645,"lng":10.6,"startYear":1704,"category":"war","wikiTitle":"Battle of Blenheim"},{"id":"wd-Q154942","title":"Battle of Königgrätz","lat":50.21,"lng":15.83,"startYear":1866,"category":"war","wikiTitle":"Battle of Königgrätz"},{"id":"wd-Q155103","title":"Siege of Budapest","lat":47.498333333,"lng":19.040833333,"startYear":1944,"category":"war","wikiTitle":"Siege of Budapest"},{"id":"wd-Q155302","title":"Battle of Loigny-Poupry","lat":48.12,"lng":1.755555555,"startYear":1870,"category":"war","wikiTitle":"Battle of Loigny-Poupry"},{"id":"wd-Q155676","title":"Battle of Somosierra","lat":41.1325,"lng":-3.58167,"startYear":1808,"category":"war","wikiTitle":"Battle of Somosierra"},{"id":"wd-Q155726","title":"Battle of Narva","lat":59.375,"lng":28.18,"startYear":1700,"category":"war","wikiTitle":"Battle of Narva"},{"id":"wd-Q159072","title":"Battle of Ulm","lat":48.383333333,"lng":9.983333333,"startYear":1805,"category":"war","wikiTitle":"Battle of Ulm"},{"id":"wd-Q159512","title":"Battle of Legnica","lat":51.145277777,"lng":16.222777777,"startYear":1241,"category":"war","wikiTitle":"Battle of Legnica"},{"id":"wd-Q161033","title":"Demyansk Pocket","lat":57.65,"lng":32.466666666,"startYear":1942,"category":"war","wikiTitle":"Demyansk Pocket"},{"id":"wd-Q161325","title":"Battle of Ramillies","lat":50.638611111,"lng":4.912777777,"startYear":1706,"category":"war","wikiTitle":"Battle of Ramillies"},{"id":"wd-Q162284","title":"Battle of Kiev","lat":50.4536,"lng":30.5164,"startYear":1941,"category":"war","wikiTitle":"Battle of Kiev"},{"id":"wd-Q162357","title":"Battle of Smolensk","lat":54.782778,"lng":32.045278,"startYear":1941,"category":"war","wikiTitle":"Battle of Smolensk"},{"id":"wd-Q163959","title":"Battle of Héricourt","lat":47.5833,"lng":6.76667,"startYear":1474,"category":"war","wikiTitle":"Battle of Héricourt"},{"id":"wd-Q166015","title":"Battle of Lesnaya","lat":53.542222222,"lng":30.915,"startYear":1708,"category":"war","wikiTitle":"Battle of Lesnaya"},{"id":"wd-Q166929","title":"Battle of Avesnes-le-Sec","lat":50.25,"lng":3.378,"startYear":1793,"category":"war","wikiTitle":"Battle of Avesnes-le-Sec"},{"id":"wd-Q166961","title":"Battle of Shrewsbury","lat":52.7475,"lng":-2.7185,"startYear":1403,"category":"war","wikiTitle":"Battle of Shrewsbury"},{"id":"wd-Q167143","title":"Raid on Berlin","lat":52.5186,"lng":13.4081,"startYear":1760,"category":"war","wikiTitle":"Raid on Berlin"},{"id":"wd-Q167259","title":"Battle of Lützen","lat":51.267777777,"lng":12.156666666,"startYear":1632,"category":"war","wikiTitle":"Battle of Lützen"},{"id":"wd-Q169602","title":"Battle of Jakobstadt","lat":56.503611111,"lng":25.870833333,"startYear":1704,"category":"war","wikiTitle":"Battle of Jakobstadt"},{"id":"wd-Q170113","title":"Battle of Saint Gotthard","lat":46.94166667,"lng":16.21666667,"startYear":1664,"category":"war","wikiTitle":"Battle of Saint Gotthard"},{"id":"wd-Q170400","title":"Battle of Kunersdorf","lat":52.353055555,"lng":14.612777777,"startYear":1759,"category":"war","wikiTitle":"Battle of Kunersdorf"},{"id":"wd-Q173077","title":"Battle of Tours","lat":47.39361111,"lng":0.68916667,"startYear":732,"category":"war","wikiTitle":"Battle of Tours"},{"id":"wd-Q174253","title":"Battle of Tegyra","lat":38.534199,"lng":22.957728,"startYear":-374,"category":"war","wikiTitle":"Battle of Tegyra"},{"id":"wd-Q175985","title":"Battle of Telamon","lat":42.555,"lng":11.133,"startYear":-224,"category":"war","wikiTitle":"Battle of Telamon"},{"id":"wd-Q176216","title":"Battle of Yellow Tavern","lat":37.6599,"lng":-77.4552,"startYear":1864,"category":"war","wikiTitle":"Battle of Yellow Tavern"},{"id":"wd-Q176416","title":"Battle of Sphacteria","lat":36.930136,"lng":21.665725,"startYear":-424,"category":"war","wikiTitle":"Battle of Sphacteria"},{"id":"wd-Q177283","title":"Altmark Incident","lat":58.316944444,"lng":6.336388888,"startYear":1940,"category":"war","wikiTitle":"Altmark Incident"},{"id":"wd-Q177470","title":"Battle of Stoney Creek","lat":43.218333333,"lng":-79.764166666,"startYear":1813,"category":"war","wikiTitle":"Battle of Stoney Creek"},{"id":"wd-Q178510","title":"Battle of Mohács","lat":45.941388888,"lng":18.647222222,"startYear":1526,"category":"war","wikiTitle":"Battle of Mohács"},{"id":"wd-Q178842","title":"Battle of Waterberg","lat":-20.47666667,"lng":17.30805556,"startYear":1904,"category":"war","wikiTitle":"Battle of Waterberg"},{"id":"wd-Q179288","title":"Battle of Kosovo","lat":42.63,"lng":21.12,"startYear":1389,"category":"war","wikiTitle":"Battle of Kosovo"},{"id":"wd-Q179455","title":"Battle of the Hellespont","lat":40.2,"lng":26.4,"startYear":324,"category":"war","wikiTitle":"Battle of the Hellespont"},{"id":"wd-Q179591","title":"Battle of Cannae","lat":41.306388888,"lng":16.1325,"startYear":-215,"category":"war","wikiTitle":"Battle of Cannae"},{"id":"wd-Q179670","title":"Battle of Gaugamela","lat":36.36,"lng":43.25,"startYear":-330,"category":"war","wikiTitle":"Battle of Gaugamela"},{"id":"wd-Q180659","title":"Battle of Wilson's Creek","lat":37.1,"lng":-93.4075,"startYear":1861,"category":"war","wikiTitle":"Battle of Wilson's Creek"},{"id":"wd-Q181293","title":"Battle of Rozgony","lat":48.744743,"lng":21.336136,"startYear":1312,"category":"war","wikiTitle":"Battle of Rozgony"},{"id":"wd-Q182831","title":"Battle of Schliengen","lat":47.75555556,"lng":7.57722222,"startYear":1796,"category":"war","wikiTitle":"Battle of Schliengen"},{"id":"wd-Q183249","title":"Battle of the Sit River","lat":58.06853,"lng":37.85202,"startYear":1238,"category":"war","wikiTitle":"Battle of the Sit River"},{"id":"wd-Q1392","title":"Battle of Nieuwpoort","lat":51.155833333,"lng":2.738333333,"startYear":1600,"category":"war","wikiTitle":"Battle of Nieuwpoort"},{"id":"wd-Q3956","title":"Battle of Jarama","lat":40.2179,"lng":-3.50403333,"startYear":1937,"category":"war","wikiTitle":"Battle of Jarama"},{"id":"wd-Q4373","title":"Battle of White Mountain","lat":50.078333333,"lng":14.319444444,"startYear":1620,"category":"war","wikiTitle":"Battle of White Mountain"},{"id":"wd-Q4411","title":"Battle of Valmy","lat":49.080277777,"lng":4.767222222,"startYear":1792,"category":"war","wikiTitle":"Battle of Valmy"},{"id":"wd-Q6891","title":"Battle of Bagradas","lat":36.7975,"lng":10.1659,"startYear":-254,"category":"war","wikiTitle":"Battle of Bagradas"},{"id":"wd-Q12428","title":"Battle of Dorylaeum","lat":39.7767,"lng":30.5206,"startYear":1097,"category":"war","wikiTitle":"Battle of Dorylaeum"},{"id":"wd-Q13190","title":"Battle of Bolia","lat":47.683333,"lng":18.05,"startYear":469,"category":"war","wikiTitle":"Battle of Bolia"},{"id":"wd-Q14689","title":"Battle of the Ice","lat":58.233333333,"lng":27.5,"startYear":1242,"category":"war","wikiTitle":"Battle of the Ice"},{"id":"wd-Q25628","title":"Great stand on the Ugra river","lat":54.56666667,"lng":36.05,"startYear":1480,"category":"war","wikiTitle":"Great stand on the Ugra river"},{"id":"wd-Q26493","title":"Battle of Dandanaqan","lat":37.391933,"lng":61.345353,"startYear":1040,"category":"war","wikiTitle":"Battle of Dandanaqan"},{"id":"wd-Q27759","title":"Battle of Crécy","lat":50.256388888,"lng":1.887777777,"startYear":1346,"category":"war","wikiTitle":"Battle of Crécy"},{"id":"wd-Q28703","title":"Brécourt Manor Assault","lat":49.38805556,"lng":-1.22611111,"startYear":1944,"category":"war","wikiTitle":"Brécourt Manor Assault"},{"id":"wd-Q29802","title":"Battle of Rodeo del Medio","lat":-32.966666666,"lng":-68.683333333,"startYear":1841,"category":"war","wikiTitle":"Battle of Rodeo del Medio"},{"id":"wd-Q31900","title":"Battle of Marathon","lat":38.118055555,"lng":23.978333333,"startYear":-489,"category":"war","wikiTitle":"Battle of Marathon"},{"id":"wd-Q32198","title":"Battle of Gloucester","lat":42.6064,"lng":-70.6637,"startYear":1775,"category":"war","wikiTitle":"Battle of Gloucester"},{"id":"wd-Q32493","title":"Battle of Rocoux","lat":50.6757,"lng":5.546,"startYear":1746,"category":"war","wikiTitle":"Battle of Rocoux"},{"id":"wd-Q32559","title":"Siege of Vyborg","lat":60.7092,"lng":28.7442,"startYear":1706,"category":"war","wikiTitle":"Siege of Vyborg"},{"id":"wd-Q32832","title":"Battle of Varna","lat":43.216666666,"lng":27.883333333,"startYear":1444,"category":"war","wikiTitle":"Battle of Varna"},{"id":"wd-Q33570","title":"Battle of Grunwald","lat":53.486111111,"lng":20.124722222,"startYear":1410,"category":"war","wikiTitle":"Battle of Grunwald"},{"id":"wd-Q38977","title":"Battle of Deutschbrod","lat":49.739722222,"lng":15.481111111,"startYear":1422,"category":"war","wikiTitle":"Battle of Deutschbrod"},{"id":"wd-Q39040","title":"Battle of Yamazaki","lat":34.907055555,"lng":135.691333333,"startYear":1582,"category":"war","wikiTitle":"Battle of Yamazaki"},{"id":"wd-Q39154","title":"Battle of Soissons","lat":49.381667,"lng":3.323611,"startYear":486,"category":"war","wikiTitle":"Battle of Soissons"},{"id":"wd-Q40144","title":"Battle of Coronel","lat":-36.983611111,"lng":-73.813611111,"startYear":1914,"category":"war","wikiTitle":"Battle of Coronel"},{"id":"wd-Q41320","title":"Battle of Denain","lat":50.329444444,"lng":3.395833333,"startYear":1712,"category":"war","wikiTitle":"Battle of Denain"},{"id":"wd-Q41894","title":"Battle of New Orleans","lat":29.9425,"lng":-89.990833333,"startYear":1815,"category":"war","wikiTitle":"Battle of New Orleans"},{"id":"wd-Q44062","title":"Battle of Nebovidy","lat":49.989722222,"lng":15.224722222,"startYear":1422,"category":"war","wikiTitle":"Battle of Nebovidy"},{"id":"wd-Q44732","title":"Battle of the Golden Spurs","lat":50.828888888,"lng":3.275833333,"startYear":1302,"category":"war","wikiTitle":"Battle of the Golden Spurs"},{"id":"wd-Q47299","title":"Battle of Corupedium","lat":38.546466,"lng":27.617792,"startYear":-280,"category":"war","wikiTitle":"Battle of Corupedium"},{"id":"wd-Q48163","title":"Battle of Custoza","lat":45.37888889,"lng":10.79583333,"startYear":1866,"category":"war","wikiTitle":"Battle of Custoza"},{"id":"wd-Q48202","title":"Battle of Custoza","lat":45.37888889,"lng":10.79583333,"startYear":1848,"category":"war","wikiTitle":"Battle of Custoza"},{"id":"wd-Q48314","title":"Battle of Waterloo","lat":50.678055555,"lng":4.412222222,"startYear":1815,"category":"war","wikiTitle":"Battle of Waterloo"},{"id":"wd-Q48776","title":"Battle of Palmito Ranch","lat":25.94667,"lng":-97.28528,"startYear":1865,"category":"war","wikiTitle":"Battle of Palmito Ranch"},{"id":"wd-Q52418","title":"Attack on Pearl Harbor","lat":21.365,"lng":-157.95,"startYear":1941,"category":"war","wikiTitle":"Attack on Pearl Harbor"},{"id":"wd-Q55504","title":"Battle of Azaz","lat":36.178934,"lng":36.719484,"startYear":1125,"category":"war","wikiTitle":"Battle of Azaz"},{"id":"wd-Q55635","title":"Batalla del Monte de las Cruces","lat":19.3294,"lng":-99.3164,"startYear":1810,"category":"war","wikiTitle":"Batalla del Monte de las Cruces"},{"id":"wd-Q61100","title":"Battle of Civitate","lat":41.733333,"lng":15.266667,"startYear":1053,"category":"war","wikiTitle":"Battle of Civitate"},{"id":"wd-Q62417","title":"Battle of Turaida","lat":57.183333333,"lng":24.85,"startYear":1298,"category":"war","wikiTitle":"Battle of Turaida"},{"id":"wd-Q63313","title":"Battle of Pell's Point","lat":40.86617,"lng":-73.81048,"startYear":1776,"category":"war","wikiTitle":"Battle of Pell's Point"},{"id":"wd-Q63468","title":"Battle of Pavia","lat":45.1975,"lng":9.165,"startYear":1525,"category":"war","wikiTitle":"Battle of Pavia"},{"id":"wd-Q63701","title":"Battle of Saint-Omer","lat":50.7461,"lng":2.26167,"startYear":1340,"category":"war","wikiTitle":"Battle of Saint-Omer"},{"id":"wd-Q68371","title":"Battle of Mortemer","lat":49.751666666,"lng":1.551111111,"startYear":1054,"category":"war","wikiTitle":"Battle of Mortemer"},{"id":"wd-Q73105","title":"Battle of Westkapelle","lat":51.52,"lng":3.58,"startYear":1253,"category":"war","wikiTitle":"Battle of Westkapelle"},{"id":"wd-Q74072","title":"Battle of Albulena","lat":41.601944444,"lng":19.718055555,"startYear":1457,"category":"war","wikiTitle":"Battle of Albulena"},{"id":"wd-Q74119","title":"Battle of Langensalza","lat":51.108,"lng":10.6468,"startYear":1761,"category":"war","wikiTitle":"Battle of Langensalza"},{"id":"wd-Q74391","title":"Battle of Nauheim","lat":50.36482,"lng":8.72555,"startYear":1762,"category":"war","wikiTitle":"Battle of Nauheim"},{"id":"wd-Q76914","title":"Battle of Cepeda","lat":-33.38138889,"lng":-60.58305556,"startYear":1859,"category":"war","wikiTitle":"Battle of Cepeda"},{"id":"wd-Q82702","title":"Battle of Phaleron","lat":37.933333333,"lng":23.7,"startYear":1827,"category":"war","wikiTitle":"Battle of Phaleron"},{"id":"wd-Q83002","title":"First Battle of al-Faw","lat":29.975277777,"lng":48.4725,"startYear":1986,"category":"war","wikiTitle":"First Battle of al-Faw"},{"id":"wd-Q83224","title":"Battle of Hastings","lat":50.911944444,"lng":0.4875,"startYear":1066,"category":"war","wikiTitle":"Battle of Hastings"},{"id":"wd-Q87779","title":"Battle of the Teutoburg Forest","lat":52.4075,"lng":8.125833333,"startYear":9,"category":"war","wikiTitle":"Battle of the Teutoburg Forest"},{"id":"wd-Q94414","title":"Battle of Lake Vadimo","lat":42.4842,"lng":12.3232,"startYear":-309,"category":"war","wikiTitle":"Battle of Lake Vadimo"},{"id":"wd-Q111648","title":"Battle of Stony Point","lat":41.24180362,"lng":-73.97352219,"startYear":1779,"category":"war","wikiTitle":"Battle of Stony Point"},{"id":"wd-Q112016","title":"Battle of the Persian Gate on the Mountain","lat":30.708333333,"lng":51.598611111,"startYear":-329,"category":"war","wikiTitle":"Battle of the Persian Gate on the Mountain"},{"id":"wd-Q114620","title":"Battle of Minatogawa","lat":34.679972222,"lng":135.165861111,"startYear":1336,"category":"war","wikiTitle":"Battle of Minatogawa"},{"id":"wd-Q123215","title":"Battle of Jaxartes","lat":40.283333,"lng":69.616667,"startYear":-328,"category":"war","wikiTitle":"Battle of Jaxartes"},{"id":"wd-Q127299","title":"Battle of Kolín","lat":50.028888888,"lng":15.121944444,"startYear":1757,"category":"war","wikiTitle":"Battle of Kolín"},{"id":"wd-Q184320","title":"Battle of Borodino","lat":55.516666666,"lng":35.816666666,"startYear":1812,"category":"war","wikiTitle":"Battle of Borodino"},{"id":"wd-Q186107","title":"Battle of Stockach","lat":47.75555556,"lng":7.57722222,"startYear":1799,"category":"war","wikiTitle":"Battle of Stockach"},{"id":"wd-Q188495","title":"Battle of Agincourt","lat":50.463333333,"lng":2.141388888,"startYear":1415,"category":"war","wikiTitle":"Battle of Agincourt"},{"id":"wd-Q192473","title":"Battle of Adrianople","lat":41.8,"lng":26.6,"startYear":378,"category":"war","wikiTitle":"Battle of Adrianople"},{"id":"wd-Q192660","title":"Battle of Okinawa","lat":26.5,"lng":128,"startYear":1945,"category":"war","wikiTitle":"Battle of Okinawa"},{"id":"wd-Q192938","title":"Battle of the Granicus","lat":40.228055555,"lng":27.242222222,"startYear":-333,"category":"war","wikiTitle":"Battle of the Granicus"},{"id":"wd-Q193993","title":"Battle of Pea Ridge","lat":36.454388888,"lng":-94.034694444,"startYear":1862,"category":"war","wikiTitle":"Battle of Pea Ridge"},{"id":"wd-Q194329","title":"Battle of Five Forks","lat":37.139444444,"lng":-77.622777777,"startYear":1865,"category":"war","wikiTitle":"Battle of Five Forks"},{"id":"wd-Q194951","title":"Battle of Haram","lat":45.25,"lng":19.4,"startYear":1125,"category":"war","wikiTitle":"Battle of Haram"},{"id":"wd-Q195118","title":"Battle of Old Church","lat":37.6444,"lng":-77.2209,"startYear":1864,"category":"war","wikiTitle":"Battle of Old Church"},{"id":"wd-Q199371","title":"Battle of Megiddo","lat":32.4,"lng":34.883,"startYear":1918,"category":"war","wikiTitle":"Battle of Megiddo"},{"id":"wd-Q200032","title":"Battle of Manzikert","lat":39.144722222,"lng":42.539166666,"startYear":1071,"category":"war","wikiTitle":"Battle of Manzikert"},{"id":"wd-Q200056","title":"Battle of Zama","lat":36.298888888,"lng":9.449166666,"startYear":-201,"category":"war","wikiTitle":"Battle of Zama"},{"id":"wd-Q200682","title":"Battle of Queenston Heights","lat":43.161944444,"lng":-79.050555555,"startYear":1812,"category":"war","wikiTitle":"Battle of Queenston Heights"},{"id":"wd-Q200716","title":"Battle of Chaeronea","lat":38.495,"lng":22.8475,"startYear":-337,"category":"war","wikiTitle":"Battle of Chaeronea"},{"id":"wd-Q200855","title":"Battle of Vienna","lat":48.235,"lng":16.335,"startYear":1683,"category":"war","wikiTitle":"Battle of Vienna"},{"id":"wd-Q201526","title":"Battle of Issus","lat":36.837894,"lng":36.211109,"startYear":-332,"category":"war","wikiTitle":"Battle of Issus"},{"id":"wd-Q201692","title":"Battle of Poitiers","lat":46.522222222,"lng":0.403333333,"startYear":1356,"category":"war","wikiTitle":"Battle of Poitiers"},{"id":"wd-Q203225","title":"Battle of Stamford Bridge","lat":53.9925,"lng":-0.9125,"startYear":1066,"category":"war","wikiTitle":"Battle of Stamford Bridge"},{"id":"wd-Q203233","title":"Battle of Plassey","lat":23.8,"lng":88.25,"startYear":2019,"category":"war","wikiTitle":"Battle of Plassey"},{"id":"wd-Q203234","title":"Battle of Épehy","lat":50,"lng":3.11667,"startYear":1918,"category":"war","wikiTitle":"Battle of Épehy"},{"id":"wd-Q203366","title":"Battle of Gubel","lat":47.16168611,"lng":8.57377778,"startYear":1531,"category":"war","wikiTitle":"Battle of Gubel"},{"id":"wd-Q203681","title":"Battle of Pharsalus","lat":39.3,"lng":22.38333333,"startYear":-47,"category":"war","wikiTitle":"Battle of Pharsalus"},{"id":"wd-Q203729","title":"Battle of Kadesh","lat":34.555487,"lng":36.498028,"startYear":-1273,"category":"war","wikiTitle":"Battle of Kadesh"},{"id":"wd-Q204636","title":"Battle of Plataea","lat":38.24,"lng":23.318,"startYear":-478,"category":"war","wikiTitle":"Battle of Plataea"},{"id":"wd-Q205379","title":"Battle of Breitenfeld","lat":51.4,"lng":12.33333333,"startYear":1631,"category":"war","wikiTitle":"Battle of Breitenfeld"},{"id":"wd-Q205422","title":"Battle of the Little Bighorn","lat":45.565,"lng":-107.428888888,"startYear":1876,"category":"war","wikiTitle":"Battle of the Little Bighorn"},{"id":"wd-Q205887","title":"Battle of Carrhae","lat":36.866667,"lng":39.033333,"startYear":-52,"category":"war","wikiTitle":"Battle of Carrhae"},{"id":"wd-Q207250","title":"Battle of Lake Trasimene","lat":43.1975,"lng":12.085,"startYear":-216,"category":"war","wikiTitle":"Battle of Lake Trasimene"},{"id":"wd-Q209359","title":"Battle of Vimeiro","lat":39.175,"lng":-9.31667,"startYear":1808,"category":"war","wikiTitle":"Battle of Vimeiro"},{"id":"wd-Q209387","title":"Battle of Ankara","lat":40.15,"lng":32.95,"startYear":1402,"category":"war","wikiTitle":"Battle of Ankara"},{"id":"wd-Q209721","title":"Battle of Cabezón","lat":41.7333,"lng":-4.64639,"startYear":1808,"category":"war","wikiTitle":"Battle of Cabezón"},{"id":"wd-Q210354","title":"Battle of Kulikovo","lat":53.607777777,"lng":38.671388888,"startYear":1380,"category":"war","wikiTitle":"Battle of Kulikovo"},{"id":"wd-Q211220","title":"Battle of Chandannagar","lat":22.855886,"lng":88.38,"startYear":1757,"category":"war","wikiTitle":"Battle of Chandannagar"},{"id":"wd-Q212220","title":"Battle of Nicopolis","lat":43.705833333,"lng":24.895833333,"startYear":1396,"category":"war","wikiTitle":"Battle of Nicopolis"},{"id":"wd-Q213074","title":"Battle of the Hydaspes","lat":32.827777777,"lng":73.638888888,"startYear":-325,"category":"war","wikiTitle":"Battle of the Hydaspes"},{"id":"wd-Q219697","title":"Battle of Las Navas de Tolosa","lat":38.343,"lng":-3.549027777,"startYear":1212,"category":"war","wikiTitle":"Battle of Las Navas de Tolosa"},{"id":"wd-Q220766","title":"Battle of Manzikert","lat":39.147778,"lng":42.544167,"startYear":1915,"category":"war","wikiTitle":"Battle of Manzikert"},{"id":"wd-Q221469","title":"First Battle of Bull Run","lat":38.815,"lng":-77.5225,"startYear":1861,"category":"war","wikiTitle":"First Battle of Bull Run"},{"id":"wd-Q222013","title":"Battle of Bosworth Field","lat":52.591111111,"lng":-1.410277777,"startYear":1485,"category":"war","wikiTitle":"Battle of Bosworth Field"},{"id":"wd-Q223220","title":"Battle of Megalopolis","lat":37.4011,"lng":22.1422,"startYear":-330,"category":"war","wikiTitle":"Battle of Megalopolis"},{"id":"wd-Q223622","title":"Battle of Prague","lat":50.076,"lng":14.557,"startYear":1757,"category":"war","wikiTitle":"Battle of Prague"},{"id":"wd-Q225562","title":"Battle of Shizugatake","lat":35.505916666,"lng":136.192722222,"startYear":1583,"category":"war","wikiTitle":"Battle of Shizugatake"},{"id":"wd-Q233343","title":"Second Battle of Bull Run","lat":38.81246,"lng":-77.52131,"startYear":1862,"category":"war","wikiTitle":"Second Battle of Bull Run"},{"id":"wd-Q233344","title":"Battle of the Silarius River","lat":40.481628055,"lng":14.942531111,"startYear":-70,"category":"war","wikiTitle":"Battle of the Silarius River"},{"id":"wd-Q233350","title":"Second Battle of Chlumec","lat":50.66666667,"lng":13.93333333,"startYear":1126,"category":"war","wikiTitle":"Second Battle of Chlumec"},{"id":"wd-Q233352","title":"Battle of Chaeronea","lat":38.501,"lng":22.864,"startYear":-85,"category":"war","wikiTitle":"Battle of Chaeronea"},{"id":"wd-Q233356","title":"Battle of Lacolle Mills","lat":45.067564,"lng":-73.343809,"startYear":1814,"category":"war","wikiTitle":"Battle of Lacolle Mills"},{"id":"wd-Q233363","title":"Second Battle of Beneventum","lat":41.1311111,"lng":14.7780556,"startYear":-211,"category":"war","wikiTitle":"Second Battle of Beneventum"},{"id":"wd-Q233373","title":"Battle of Capua","lat":41.0833333,"lng":14.25,"startYear":-210,"category":"war","wikiTitle":"Battle of Capua"},{"id":"wd-Q233386","title":"Battle of Herdonia","lat":41.3166667,"lng":15.6333333,"startYear":-209,"category":"war","wikiTitle":"Battle of Herdonia"},{"id":"wd-Q233399","title":"Battle of Mantinea","lat":37.6,"lng":22.4,"startYear":-361,"category":"war","wikiTitle":"Battle of Mantinea"},{"id":"wd-Q233402","title":"Battle of Nola","lat":40.9261111,"lng":14.5275,"startYear":-214,"category":"war","wikiTitle":"Battle of Nola"},{"id":"wd-Q233405","title":"Second Battle of Porto","lat":41.149444,"lng":-8.610833,"startYear":1809,"category":"war","wikiTitle":"Second Battle of Porto"},{"id":"wd-Q233406","title":"Second Battle of Tarentum","lat":40.4666667,"lng":17.2333333,"startYear":-208,"category":"war","wikiTitle":"Second Battle of Tarentum"},{"id":"wd-Q233414","title":"Battle of Panipat","lat":29.39,"lng":76.97,"startYear":1556,"category":"war","wikiTitle":"Battle of Panipat"},{"id":"wd-Q233416","title":"Second Battle of St Albans","lat":51.755,"lng":-0.33611111,"startYear":1461,"category":"war","wikiTitle":"Second Battle of St Albans"},{"id":"wd-Q233417","title":"Battle of the Assunpink Creek","lat":40.218055555,"lng":-74.764166666,"startYear":1777,"category":"war","wikiTitle":"Battle of the Assunpink Creek"},{"id":"wd-Q234188","title":"Battle of Sekigahara","lat":35.3705,"lng":136.4616,"startYear":1600,"category":"war","wikiTitle":"Battle of Sekigahara"},{"id":"wd-Q241108","title":"Battle of Friedland","lat":54.45,"lng":21.016666666,"startYear":1807,"category":"war","wikiTitle":"Battle of Friedland"},{"id":"wd-Q243640","title":"Second Battle of Sabine Pass","lat":29.720513888,"lng":-93.870747222,"startYear":1863,"category":"war","wikiTitle":"Second Battle of Sabine Pass"},{"id":"wd-Q244356","title":"Battle of Ain Jalut","lat":32.55,"lng":35.357,"startYear":1260,"category":"war","wikiTitle":"Battle of Ain Jalut"},{"id":"wd-Q245773","title":"Battle of Alba de Tormes","lat":40.83333333,"lng":-5.5,"startYear":1809,"category":"war","wikiTitle":"Battle of Alba de Tormes"},{"id":"wd-Q245811","title":"Battle of Chemnitz","lat":50.833333,"lng":12.916667,"startYear":1639,"category":"war","wikiTitle":"Battle of Chemnitz"},{"id":"wd-Q245874","title":"Battle of Évora","lat":38.57138889,"lng":-7.90861111,"startYear":1808,"category":"war","wikiTitle":"Battle of Évora"},{"id":"wd-Q246200","title":"Battle of Medina de Rioseco","lat":41.894166666,"lng":-4.993611111,"startYear":1808,"category":"war","wikiTitle":"Battle of Medina de Rioseco"},{"id":"wd-Q247871","title":"Battle of Talana Hill","lat":-28.163888888,"lng":30.267777777,"startYear":1899,"category":"war","wikiTitle":"Battle of Talana Hill"},{"id":"wd-Q248979","title":"Battle of Modder River","lat":-29.03916667,"lng":24.62638889,"startYear":1899,"category":"war","wikiTitle":"Battle of Modder River"},{"id":"wd-Q250383","title":"Action at Néry","lat":49.2822,"lng":2.77917,"startYear":1914,"category":"war","wikiTitle":"Action at Néry"},{"id":"wd-Q251184","title":"Battle of Signal Hill","lat":47.56972222,"lng":-52.68194444,"startYear":1762,"category":"war","wikiTitle":"Battle of Signal Hill"},{"id":"wd-Q251597","title":"Battle of Dornach","lat":47.48333333,"lng":7.61666667,"startYear":1499,"category":"war","wikiTitle":"Battle of Dornach"},{"id":"wd-Q252698","title":"Battle of Wesenberg","lat":59.35,"lng":26.35,"startYear":1268,"category":"war","wikiTitle":"Battle of Wesenberg"},{"id":"wd-Q254797","title":"Battle of Le Bourget","lat":48.9353,"lng":2.42556,"startYear":1870,"category":"war","wikiTitle":"Battle of Le Bourget"},{"id":"wd-Q258069","title":"Battle of Segesvár","lat":46.236277777,"lng":24.846,"startYear":1849,"category":"war","wikiTitle":"Battle of Segesvár"},{"id":"wd-Q259526","title":"Battle of Long Tan","lat":10.553888888,"lng":107.258888888,"startYear":1966,"category":"war","wikiTitle":"Battle of Long Tan"},{"id":"wd-Q261345","title":"Battle of Lleida","lat":41.61666667,"lng":0.63333333,"startYear":1642,"category":"war","wikiTitle":"Battle of Lleida"},{"id":"wd-Q261738","title":"Battle of Kilrush","lat":53.062128,"lng":-6.862631,"startYear":1642,"category":"war","wikiTitle":"Battle of Kilrush"},{"id":"wd-Q262648","title":"Battle of Höchstädt","lat":48.6,"lng":10.55,"startYear":1800,"category":"war","wikiTitle":"Battle of Höchstädt"},{"id":"wd-Q263799","title":"Battle of Mared","lat":56.805058888,"lng":12.963403888,"startYear":1563,"category":"war","wikiTitle":"Battle of Mared"},{"id":"wd-Q263950","title":"Battle of Elandslaagte","lat":-28.4,"lng":29.95,"startYear":1899,"category":"war","wikiTitle":"Battle of Elandslaagte"},{"id":"wd-Q264737","title":"Battle of Tolbiac","lat":50.675277777,"lng":6.601111111,"startYear":496,"category":"war","wikiTitle":"Battle of Tolbiac"},{"id":"wd-Q264911","title":"Battle of Brüx","lat":50.5211592,"lng":13.6367825,"startYear":1421,"category":"war","wikiTitle":"Battle of Brüx"},{"id":"wd-Q265106","title":"Battle of Estrelleta","lat":18.88333333,"lng":-71.7,"startYear":1845,"category":"war","wikiTitle":"Battle of Estrelleta"},{"id":"wd-Q266689","title":"First Battle of Dego","lat":44.45,"lng":8.31667,"startYear":1794,"category":"war","wikiTitle":"First Battle of Dego"},{"id":"wd-Q267418","title":"Uzbin Valley ambush","lat":34.659166666,"lng":69.848888888,"startYear":2008,"category":"war","wikiTitle":"Uzbin Valley ambush"},{"id":"wd-Q269207","title":"Battle of Sedan","lat":49.7025,"lng":4.9425,"startYear":1940,"category":"war","wikiTitle":"Battle of Sedan"},{"id":"wd-Q269479","title":"Battle of Köbölkút","lat":47.859569304,"lng":18.51978704,"startYear":1663,"category":"war","wikiTitle":"Battle of Köbölkút"},{"id":"wd-Q270517","title":"Dieppe Raid","lat":49.933333333,"lng":1.083333333,"startYear":1942,"category":"war","wikiTitle":"Dieppe Raid"},{"id":"wd-Q271873","title":"Battle of the Trebia","lat":44.9875,"lng":9.5675,"startYear":-217,"category":"war","wikiTitle":"Battle of the Trebia"},{"id":"wd-Q273011","title":"Battle of Marengo","lat":44.883333333,"lng":8.683333333,"startYear":1800,"category":"war","wikiTitle":"Battle of Marengo"},{"id":"wd-Q273069","title":"Battle of Lechfeld","lat":48.35,"lng":10.92,"startYear":955,"category":"war","wikiTitle":"Battle of Lechfeld"},{"id":"wd-Q275019","title":"Battle of Smolensk","lat":54.7833,"lng":32.05,"startYear":1943,"category":"war","wikiTitle":"Battle of Smolensk"},{"id":"wd-Q275736","title":"Battle of San Francisco","lat":-19.66666667,"lng":-69.95,"startYear":1879,"category":"war","wikiTitle":"Battle of San Francisco"},{"id":"wd-Q276059","title":"Battle of Vitoria","lat":42.85,"lng":-2.683333333,"startYear":1813,"category":"war","wikiTitle":"Battle of Vitoria"},{"id":"wd-Q278903","title":"Battle of Lechaeum","lat":37.934142,"lng":22.884225,"startYear":-390,"category":"war","wikiTitle":"Battle of Lechaeum"},{"id":"wd-Q280439","title":"Battle of Obertyn","lat":48.6894,"lng":25.17,"startYear":1531,"category":"war","wikiTitle":"Battle of Obertyn"},{"id":"wd-Q280468","title":"Battle of Ap Bac","lat":10.438333333,"lng":106.195277777,"startYear":1963,"category":"war","wikiTitle":"Battle of Ap Bac"},{"id":"wd-Q281013","title":"Battle of Monmouth","lat":51.813,"lng":-2.725,"startYear":1233,"category":"war","wikiTitle":"Battle of Monmouth"},{"id":"wd-Q281089","title":"Battle of Ludford Bridge","lat":52.36375,"lng":-2.718888888,"startYear":1459,"category":"war","wikiTitle":"Battle of Ludford Bridge"},{"id":"wd-Q281145","title":"Battle of Firebase Anaconda","lat":32.13333333,"lng":66,"startYear":2007,"category":"war","wikiTitle":"Battle of Firebase Anaconda"},{"id":"wd-Q281461","title":"Battle of Grauholz","lat":47.01666667,"lng":7.5,"startYear":1798,"category":"war","wikiTitle":"Battle of Grauholz"},{"id":"wd-Q281850","title":"Battle of Stanwix Station","lat":32.93352,"lng":-113.39255,"startYear":1862,"category":"war","wikiTitle":"Battle of Stanwix Station"},{"id":"wd-Q283015","title":"Battle of Beaugency","lat":46.7958,"lng":1.64917,"startYear":1429,"category":"war","wikiTitle":"Battle of Beaugency"},{"id":"wd-Q283062","title":"Battle of Benevento","lat":41.134166666,"lng":14.773333333,"startYear":1266,"category":"war","wikiTitle":"Battle of Benevento"},{"id":"wd-Q283288","title":"Battle of Abancay","lat":-13.63333333,"lng":-72.88333333,"startYear":1537,"category":"war","wikiTitle":"Battle of Abancay"},{"id":"wd-Q283364","title":"Battle of Legnano","lat":45.603333333,"lng":8.908611111,"startYear":1176,"category":"war","wikiTitle":"Battle of Legnano"},{"id":"wd-Q286667","title":"Battle of Aguadulce","lat":8.24,"lng":-80.54,"startYear":1901,"category":"war","wikiTitle":"Battle of Aguadulce"},{"id":"wd-Q287389","title":"Battle of Monte Pelado","lat":42.739444444,"lng":-1.812777777,"startYear":1936,"category":"war","wikiTitle":"Battle of Monte Pelado"},{"id":"wd-Q288345","title":"Battle of Lincoln","lat":53.235,"lng":-0.555,"startYear":1141,"category":"war","wikiTitle":"Battle of Lincoln"},{"id":"wd-Q289492","title":"Battle of the Zab","lat":35.991111111,"lng":43.343611111,"startYear":750,"category":"war","wikiTitle":"Battle of the Zab"},{"id":"wd-Q298614","title":"Battle of Asiago","lat":45.90194444,"lng":11.50888889,"startYear":1916,"category":"war","wikiTitle":"Battle of Asiago"},{"id":"wd-Q301487","title":"Battle of Brandywine","lat":39.872,"lng":-75.59006,"startYear":1777,"category":"war","wikiTitle":"Battle of Brandywine"},{"id":"wd-Q302519","title":"Battle of Adwa","lat":14.018888888,"lng":38.973333333,"startYear":1896,"category":"war","wikiTitle":"Battle of Adwa"},{"id":"wd-Q303176","title":"Battle of Manila","lat":14.583333333,"lng":121,"startYear":1898,"category":"war","wikiTitle":"Battle of Manila"},{"id":"wd-Q303445","title":"Battle of Salzbach","lat":48.63833333,"lng":8.09166667,"startYear":1675,"category":"war","wikiTitle":"Battle of Salzbach"},{"id":"wd-Q303998","title":"Battle of Tourcoing","lat":50.73235,"lng":3.1548,"startYear":1794,"category":"war","wikiTitle":"Battle of Tourcoing"},{"id":"wd-Q304655","title":"First Battle of Auburn","lat":38.7,"lng":-77.7,"startYear":1863,"category":"war","wikiTitle":"First Battle of Auburn"},{"id":"wd-Q305331","title":"Battle of Carlisle","lat":40.2011,"lng":-77.1845,"startYear":1863,"category":"war","wikiTitle":"Battle of Carlisle"},{"id":"wd-Q311726","title":"Battle of the Plains of Abraham","lat":46.801666666,"lng":-71.22,"startYear":1759,"category":"war","wikiTitle":"Battle of the Plains of Abraham"},{"id":"wd-Q313435","title":"Battle of Leuthen","lat":51.152111111,"lng":16.752527777,"startYear":1757,"category":"war","wikiTitle":"Battle of Leuthen"},{"id":"wd-Q316139","title":"Battle of Oudenarde","lat":50.83,"lng":3.6,"startYear":1708,"category":"war","wikiTitle":"Battle of Oudenarde"},{"id":"wd-Q316604","title":"Battle of Welfesholz","lat":51.61666667,"lng":11.56666667,"startYear":1115,"category":"war","wikiTitle":"Battle of Welfesholz"},{"id":"wd-Q316897","title":"Battle of Malplaquet","lat":50.319722222,"lng":3.836666666,"startYear":1709,"category":"war","wikiTitle":"Battle of Malplaquet"},{"id":"wd-Q319124","title":"Battle of Ipsus","lat":38.95,"lng":30.99,"startYear":-300,"category":"war","wikiTitle":"Battle of Ipsus"},{"id":"wd-Q319592","title":"Battle on the Planta","lat":46.233056,"lng":7.360833,"startYear":1475,"category":"war","wikiTitle":"Battle on the Planta"},{"id":"wd-Q319637","title":"Battle of Bruderholz","lat":47.50756389,"lng":7.59482222,"startYear":1499,"category":"war","wikiTitle":"Battle of Bruderholz"},{"id":"wd-Q319893","title":"Battle of Stellau","lat":53.9277,"lng":9.72768,"startYear":1201,"category":"war","wikiTitle":"Battle of Stellau"},{"id":"wd-Q320394","title":"Battle of Almansa","lat":38.874444444,"lng":-1.093694444,"startYear":1707,"category":"war","wikiTitle":"Battle of Almansa"},{"id":"wd-Q1671704","title":"Battle of Nemea","lat":37.808889,"lng":22.710278,"startYear":-393,"category":"war","wikiTitle":"Battle of Nemea"},{"id":"wd-Q1678423","title":"Battle of FSB Mary Ann","lat":15.3056,"lng":108.11,"startYear":1971,"category":"war","wikiTitle":"Battle of FSB Mary Ann"},{"id":"wd-Q1678637","title":"Battle of Dorylaeum","lat":39.78333333,"lng":30.51666667,"startYear":1147,"category":"war","wikiTitle":"Battle of Dorylaeum"},{"id":"wd-Q1688652","title":"Battle of Kratzau","lat":50.793333333,"lng":14.9975,"startYear":1428,"category":"war","wikiTitle":"Battle of Kratzau"},{"id":"wd-Q1692857","title":"Battle of Losecoat Field","lat":52.686111111,"lng":-0.536111111,"startYear":1470,"category":"war","wikiTitle":"Battle of Losecoat Field"},{"id":"wd-Q1700886","title":"Battle of Soltau","lat":53.0576,"lng":9.7725,"startYear":1519,"category":"war","wikiTitle":"Battle of Soltau"},{"id":"wd-Q1704268","title":"Battle of Assandun","lat":51.6028,"lng":0.6948,"startYear":1016,"category":"war","wikiTitle":"Battle of Assandun"},{"id":"wd-Q1708064","title":"Battle of Quebec","lat":46.9667,"lng":-71.2667,"startYear":1690,"category":"war","wikiTitle":"Battle of Quebec"},{"id":"wd-Q1710916","title":"Battle of Cedar Creek","lat":39.0193,"lng":-78.3043,"startYear":1864,"category":"war","wikiTitle":"Battle of Cedar Creek"},{"id":"wd-Q1720027","title":"Battle of Paju","lat":57.82014444,"lng":26.11162778,"startYear":1919,"category":"war","wikiTitle":"Battle of Paju"},{"id":"wd-Q1720307","title":"Battle of the Hellespont","lat":40,"lng":28,"startYear":-320,"category":"war","wikiTitle":"Battle of the Hellespont"},{"id":"wd-Q1729793","title":"Battle of Hanna","lat":32.64588,"lng":46.052628,"startYear":1916,"category":"war","wikiTitle":"Battle of Hanna"},{"id":"wd-Q1740516","title":"Battle of Honnecourt","lat":50.0375,"lng":3.19639,"startYear":1642,"category":"war","wikiTitle":"Battle of Honnecourt"},{"id":"wd-Q1747219","title":"Battle of Avignon","lat":43.95,"lng":4.81667,"startYear":737,"category":"war","wikiTitle":"Battle of Avignon"},{"id":"wd-Q1748450","title":"Battle of Hedgeley Moor","lat":55.471,"lng":-1.924,"startYear":1464,"category":"war","wikiTitle":"Battle of Hedgeley Moor"},{"id":"wd-Q1748629","title":"Battle of Skerki Bank","lat":37.75333333,"lng":10.95333333,"startYear":1942,"category":"war","wikiTitle":"Battle of Skerki Bank"},{"id":"wd-Q1749008","title":"Battle of Sittang Bridge","lat":17.366667,"lng":96.883333,"startYear":1942,"category":"war","wikiTitle":"Battle of Sittang Bridge"},{"id":"wd-Q1749390","title":"Battle of Coffrane","lat":47.01666667,"lng":6.86666667,"startYear":1296,"category":"war","wikiTitle":"Battle of Coffrane"},{"id":"wd-Q1752689","title":"Battle of Nashville","lat":36.0881,"lng":-86.8098,"startYear":1864,"category":"war","wikiTitle":"Battle of Nashville"},{"id":"wd-Q1752783","title":"Battle of the Chateauguay","lat":45.158611111,"lng":-73.928611111,"startYear":1813,"category":"war","wikiTitle":"Battle of the Chateauguay"},{"id":"wd-Q1753340","title":"Battle of Wuzhang Plains","lat":34.35,"lng":107.383333,"startYear":234,"category":"war","wikiTitle":"Battle of Wuzhang Plains"},{"id":"wd-Q1753755","title":"2010 Mardakert skirmishes","lat":40.2103,"lng":46.8092,"startYear":2010,"category":"war","wikiTitle":"2010 Mardakert skirmishes"},{"id":"wd-Q1754030","title":"2008 Mardakert skirmishes","lat":40.21528,"lng":46.81278,"startYear":2008,"category":"war","wikiTitle":"2008 Mardakert skirmishes"},{"id":"wd-Q1754313","title":"Battle of Bennington","lat":42.938611111,"lng":-73.304444444,"startYear":1777,"category":"war","wikiTitle":"Battle of Bennington"},{"id":"wd-Q1754459","title":"Battle of Himera","lat":37.0667,"lng":15.3,"startYear":-310,"category":"war","wikiTitle":"Battle of Himera"},{"id":"wd-Q1754732","title":"Battle of Agnadello","lat":45.45,"lng":9.56667,"startYear":1509,"category":"war","wikiTitle":"Battle of Agnadello"},{"id":"wd-Q1754785","title":"Battle of Breitenfeld","lat":51.3403,"lng":12.3748,"startYear":1642,"category":"war","wikiTitle":"Battle of Breitenfeld"},{"id":"wd-Q1754797","title":"Landing at Cape Helles","lat":40.045,"lng":26.18,"startYear":1915,"category":"war","wikiTitle":"Landing at Cape Helles"},{"id":"wd-Q1757487","title":"Battle of Seven Oaks","lat":49.932,"lng":-97.121,"startYear":1816,"category":"war","wikiTitle":"Battle of Seven Oaks"},{"id":"wd-Q1758473","title":"Battle of Hatfield Chase","lat":53.585,"lng":-0.926,"startYear":633,"category":"war","wikiTitle":"Battle of Hatfield Chase"},{"id":"wd-Q1759500","title":"Battle of Lingones","lat":47.85,"lng":5.333333,"startYear":298,"category":"war","wikiTitle":"Battle of Lingones"},{"id":"wd-Q1760280","title":"Battle of Guastalla","lat":44.91666667,"lng":10.66666667,"startYear":1734,"category":"war","wikiTitle":"Battle of Guastalla"},{"id":"wd-Q1760784","title":"Battle of Molodi","lat":55.275,"lng":37.508611111,"startYear":1572,"category":"war","wikiTitle":"Battle of Molodi"},{"id":"wd-Q1760855","title":"Battle of Đồng Hới","lat":17.48305556,"lng":106.59972222,"startYear":1972,"category":"war","wikiTitle":"Battle of Đồng Hới"},{"id":"wd-Q1761043","title":"Battle of Algiers","lat":36.776111111,"lng":3.06,"startYear":1956,"category":"war","wikiTitle":"Battle of Algiers"},{"id":"wd-Q1761867","title":"Battle of Ramnagar","lat":32.31666667,"lng":73.83333333,"startYear":1848,"category":"war","wikiTitle":"Battle of Ramnagar"},{"id":"wd-Q1762486","title":"Battle of Sanluri","lat":39.5667,"lng":8.9,"startYear":1409,"category":"war","wikiTitle":"Battle of Sanluri"},{"id":"wd-Q1764877","title":"Occupation of Poti","lat":42.15,"lng":41.666666666,"startYear":2008,"category":"war","wikiTitle":"Occupation of Poti"},{"id":"wd-Q1765847","title":"Attack on H3","lat":32.930461,"lng":39.744417,"startYear":1981,"category":"war","wikiTitle":"Attack on H3"},{"id":"wd-Q1767196","title":"Battle of Bergendal","lat":-25.73444444,"lng":30.09333333,"startYear":1900,"category":"war","wikiTitle":"Battle of Bergendal"},{"id":"wd-Q1767332","title":"Battle of Landen","lat":50.7725,"lng":5.035,"startYear":1693,"category":"war","wikiTitle":"Battle of Landen"},{"id":"wd-Q1770064","title":"Battle of Otford","lat":51.3167,"lng":0.183333,"startYear":776,"category":"war","wikiTitle":"Battle of Otford"},{"id":"wd-Q1770727","title":"Battle of Sark","lat":54.98611111,"lng":-3.07194444,"startYear":1448,"category":"war","wikiTitle":"Battle of Sark"},{"id":"wd-Q1772061","title":"Battle of Monterey","lat":36.606388888,"lng":-121.899722222,"startYear":1846,"category":"war","wikiTitle":"Battle of Monterey"},{"id":"wd-Q1772463","title":"Battle of Reading","lat":51.4557,"lng":-0.9733,"startYear":1688,"category":"war","wikiTitle":"Battle of Reading"},{"id":"wd-Q1776203","title":"Third Battle of Krithia","lat":40.078888888,"lng":26.203888888,"startYear":1915,"category":"war","wikiTitle":"Third Battle of Krithia"},{"id":"wd-Q1777327","title":"Battle of Gavere","lat":50.9333,"lng":3.65,"startYear":1453,"category":"war","wikiTitle":"Battle of Gavere"},{"id":"wd-Q1778251","title":"Battle of Älgarås","lat":58.8167,"lng":14.2667,"startYear":1205,"category":"war","wikiTitle":"Battle of Älgarås"},{"id":"wd-Q1779008","title":"Battle of Anghiari","lat":43.546826,"lng":12.069598,"startYear":1440,"category":"war","wikiTitle":"Battle of Anghiari"},{"id":"wd-Q1779439","title":"Battle of The Cedars","lat":45.306222,"lng":-74.054611,"startYear":1776,"category":"war","wikiTitle":"Battle of The Cedars"},{"id":"wd-Q1780536","title":"Battle of Hill 60","lat":50.821388888,"lng":2.931666666,"startYear":1915,"category":"war","wikiTitle":"Battle of Hill 60"},{"id":"wd-Q1782533","title":"Battle of Ingavi","lat":-16.756788888,"lng":-68.33065,"startYear":1841,"category":"war","wikiTitle":"Battle of Ingavi"},{"id":"wd-Q1783252","title":"Battle of Seneffe","lat":50.5287063,"lng":4.2596054,"startYear":1674,"category":"war","wikiTitle":"Battle of Seneffe"},{"id":"wd-Q1784087","title":"Battle of Tourtour","lat":43.589969,"lng":6.30155,"startYear":973,"category":"war","wikiTitle":"Battle of Tourtour"},{"id":"wd-Q1784785","title":"Battle of Mons Seleucus","lat":44.459806,"lng":5.73625,"startYear":353,"category":"war","wikiTitle":"Battle of Mons Seleucus"},{"id":"wd-Q1784832","title":"Battle of Vicy","lat":50.09527778,"lng":3.24027778,"startYear":717,"category":"war","wikiTitle":"Battle of Vicy"},{"id":"wd-Q1785755","title":"Battle of Baugé","lat":47.542,"lng":-0.103,"startYear":1421,"category":"war","wikiTitle":"Battle of Baugé"},{"id":"wd-Q1785910","title":"Battle of Horseshoe Bend","lat":32.982222222,"lng":-85.735277777,"startYear":1814,"category":"war","wikiTitle":"Battle of Horseshoe Bend"},{"id":"wd-Q1786470","title":"Battle on the Irpin River","lat":50.383333,"lng":30.216667,"startYear":1320,"category":"war","wikiTitle":"Battle on the Irpin River"},{"id":"wd-Q1786801","title":"Battle of the Crater","lat":37.21825,"lng":-77.37768,"startYear":1864,"category":"war","wikiTitle":"Battle of the Crater"},{"id":"wd-Q390286","title":"Battle of Villaviciosa","lat":40.78638889,"lng":-2.83638889,"startYear":1710,"category":"war","wikiTitle":"Battle of Villaviciosa"},{"id":"wd-Q390693","title":"Battle of Scimitar Hill","lat":40.303055555,"lng":26.23,"startYear":1915,"category":"war","wikiTitle":"Battle of Scimitar Hill"},{"id":"wd-Q391087","title":"Battle of Cynoscephalae","lat":39.4167,"lng":22.5667,"startYear":-196,"category":"war","wikiTitle":"Battle of Cynoscephalae"},{"id":"wd-Q392538","title":"Battle of Sagrajas","lat":38.923056,"lng":-6.901389,"startYear":1086,"category":"war","wikiTitle":"Battle of Sagrajas"},{"id":"wd-Q396501","title":"Battle of Lehola","lat":58.549444444,"lng":25.482777777,"startYear":1215,"category":"war","wikiTitle":"Battle of Lehola"},{"id":"wd-Q398174","title":"Siege of Nicaea","lat":40.429,"lng":29.7195,"startYear":727,"category":"war","wikiTitle":"Siege of Nicaea"},{"id":"wd-Q399224","title":"Battle of Camarón","lat":19.023125,"lng":-96.613611111,"startYear":1863,"category":"war","wikiTitle":"Battle of Camarón"},{"id":"wd-Q402237","title":"Battle of Zappolino","lat":44.5,"lng":11.083333,"startYear":1325,"category":"war","wikiTitle":"Battle of Zappolino"},{"id":"wd-Q402312","title":"Battle of Dettingen","lat":50.048888888,"lng":9.018333333,"startYear":1743,"category":"war","wikiTitle":"Battle of Dettingen"},{"id":"wd-Q403416","title":"Battle of Pliska","lat":42.9275,"lng":26.66833333,"startYear":811,"category":"war","wikiTitle":"Battle of Pliska"},{"id":"wd-Q404561","title":"Battle of Koniecpol","lat":50.783333333,"lng":19.683333333,"startYear":1708,"category":"war","wikiTitle":"Battle of Koniecpol"},{"id":"wd-Q404761","title":"Battle of Saint-Dizier","lat":48.638333333,"lng":4.949722222,"startYear":1814,"category":"war","wikiTitle":"Battle of Saint-Dizier"},{"id":"wd-Q425535","title":"Battle of Hakadal","lat":60.11936111,"lng":10.82496667,"startYear":860,"category":"war","wikiTitle":"Battle of Hakadal"},{"id":"wd-Q425617","title":"Battle of Verneuil","lat":48.755,"lng":0.94,"startYear":1424,"category":"war","wikiTitle":"Battle of Verneuil"},{"id":"wd-Q425773","title":"Battle of Guilford Court House","lat":36.132,"lng":-79.844,"startYear":1781,"category":"war","wikiTitle":"Battle of Guilford Court House"},{"id":"wd-Q426099","title":"Siege of Antwerp","lat":51.22,"lng":4.41,"startYear":1914,"category":"war","wikiTitle":"Siege of Antwerp"},{"id":"wd-Q426926","title":"Battle of Warsaw","lat":52.2323,"lng":21.0084,"startYear":1656,"category":"war","wikiTitle":"Battle of Warsaw"},{"id":"wd-Q427565","title":"Battle of Lade","lat":37.55,"lng":27.1,"startYear":-493,"category":"war","wikiTitle":"Battle of Lade"},{"id":"wd-Q427853","title":"Battle of Capua","lat":41.0833333,"lng":14.25,"startYear":-211,"category":"war","wikiTitle":"Battle of Capua"},{"id":"wd-Q427891","title":"Battle of Fort Ligonier","lat":40.24083333,"lng":-79.23777778,"startYear":1758,"category":"war","wikiTitle":"Battle of Fort Ligonier"},{"id":"wd-Q428035","title":"Battle of Millesimo","lat":44.3667,"lng":8.2,"startYear":1796,"category":"war","wikiTitle":"Battle of Millesimo"},{"id":"wd-Q428280","title":"Battle of Pont-Barré","lat":47.303055555,"lng":-0.631111111,"startYear":1793,"category":"war","wikiTitle":"Battle of Pont-Barré"},{"id":"wd-Q428369","title":"Battle of Nagashino","lat":34.921472222,"lng":137.525083333,"startYear":1575,"category":"war","wikiTitle":"Battle of Nagashino"},{"id":"wd-Q428972","title":"Battle of Wittstock","lat":53.1636,"lng":12.4855,"startYear":1636,"category":"war","wikiTitle":"Battle of Wittstock"},{"id":"wd-Q429655","title":"Battle of Cedar Mountain","lat":38.40137778,"lng":-78.0658,"startYear":1862,"category":"war","wikiTitle":"Battle of Cedar Mountain"},{"id":"wd-Q431205","title":"Battle of Cunaxa","lat":33.325,"lng":44.08,"startYear":-400,"category":"war","wikiTitle":"Battle of Cunaxa"},{"id":"wd-Q431767","title":"Battle of Zornoza","lat":43.209722222,"lng":-2.718888888,"startYear":1808,"category":"war","wikiTitle":"Battle of Zornoza"},{"id":"wd-Q431849","title":"Battle of Stormberg","lat":-31.29795556,"lng":26.25480833,"startYear":1899,"category":"war","wikiTitle":"Battle of Stormberg"},{"id":"wd-Q443501","title":"Battle of Neuwied","lat":50.453333333,"lng":7.454166666,"startYear":1797,"category":"war","wikiTitle":"Battle of Neuwied"},{"id":"wd-Q444201","title":"Battle of Autun","lat":46.951666666,"lng":4.299444444,"startYear":532,"category":"war","wikiTitle":"Battle of Autun"},{"id":"wd-Q445663","title":"Battle of Saladen","lat":56.2486,"lng":24.3617,"startYear":1703,"category":"war","wikiTitle":"Battle of Saladen"},{"id":"wd-Q445710","title":"Battle of Kletsk","lat":53.06361111,"lng":26.63916667,"startYear":1706,"category":"war","wikiTitle":"Battle of Kletsk"},{"id":"wd-Q446410","title":"Battle of the Leitha River","lat":47.73666667,"lng":16.23027778,"startYear":1246,"category":"war","wikiTitle":"Battle of the Leitha River"},{"id":"wd-Q451404","title":"Battle of St. Jakob an der Sihl","lat":47.37361111,"lng":8.53083333,"startYear":1443,"category":"war","wikiTitle":"Battle of St. Jakob an der Sihl"},{"id":"wd-Q451711","title":"Battle of Carnifex Ferry","lat":38.208888888,"lng":-80.938611111,"startYear":1861,"category":"war","wikiTitle":"Battle of Carnifex Ferry"},{"id":"wd-Q451853","title":"Battle of St. Jakob an der Birs","lat":47.542,"lng":7.618,"startYear":1444,"category":"war","wikiTitle":"Battle of St. Jakob an der Birs"},{"id":"wd-Q459447","title":"Siege of Yorktown","lat":37.230833333,"lng":-76.5025,"startYear":1781,"category":"war","wikiTitle":"Siege of Yorktown"},{"id":"wd-Q460143","title":"Lawrence Massacre","lat":38.96427,"lng":-95.2359,"startYear":1863,"category":"war","wikiTitle":"Lawrence Massacre"},{"id":"wd-Q461599","title":"Battle of Leuctra","lat":38.265555555,"lng":23.166666666,"startYear":-370,"category":"war","wikiTitle":"Battle of Leuctra"},{"id":"wd-Q462099","title":"Battle of Calven","lat":46.667772,"lng":10.510483,"startYear":1499,"category":"war","wikiTitle":"Battle of Calven"},{"id":"wd-Q464512","title":"Battle of Balaclava","lat":44.57175833,"lng":33.57309444,"startYear":1854,"category":"war","wikiTitle":"Battle of Balaclava"},{"id":"wd-Q466391","title":"Battle of Hühnerwasser","lat":50.586029,"lng":14.8041556,"startYear":1866,"category":"war","wikiTitle":"Battle of Hühnerwasser"},{"id":"wd-Q469416","title":"Charge at Krojanty","lat":53.725555555,"lng":17.631944444,"startYear":1939,"category":"war","wikiTitle":"Charge at Krojanty"},{"id":"wd-Q472100","title":"Bombing of Belgrade in 1941","lat":44.816667,"lng":20.466667,"startYear":1941,"category":"war","wikiTitle":"Bombing of Belgrade in 1941"},{"id":"wd-Q472614","title":"Battle of Giornico","lat":46.3833,"lng":8.88333,"startYear":1478,"category":"war","wikiTitle":"Battle of Giornico"},{"id":"wd-Q473669","title":"Battle of Lake Smolina","lat":57.53630928,"lng":28.00460705,"startYear":1502,"category":"war","wikiTitle":"Battle of Lake Smolina"},{"id":"wd-Q473706","title":"Battle of Kay","lat":52.1,"lng":15.53333333,"startYear":1759,"category":"war","wikiTitle":"Battle of Kay"},{"id":"wd-Q473983","title":"Battle of Tuchola Forest","lat":53.6,"lng":18,"startYear":1939,"category":"war","wikiTitle":"Battle of Tuchola Forest"},{"id":"wd-Q474399","title":"Battle of Affane","lat":52.124722,"lng":-7.837778,"startYear":1565,"category":"war","wikiTitle":"Battle of Affane"},{"id":"wd-Q475544","title":"Battle of Messkirch","lat":47.993,"lng":9.1127,"startYear":1800,"category":"war","wikiTitle":"Battle of Messkirch"},{"id":"wd-Q475957","title":"Battle of San Fermo","lat":45.810349115,"lng":9.046155161,"startYear":1859,"category":"war","wikiTitle":"Battle of San Fermo"},{"id":"wd-Q477592","title":"Battle of Drakenburg","lat":52.6932,"lng":9.23135,"startYear":1547,"category":"war","wikiTitle":"Battle of Drakenburg"},{"id":"wd-Q477778","title":"Battle of Frastanz","lat":47.22,"lng":9.62,"startYear":1499,"category":"war","wikiTitle":"Battle of Frastanz"},{"id":"wd-Q479979","title":"Battle of Abensberg","lat":48.809166666,"lng":11.863611111,"startYear":1809,"category":"war","wikiTitle":"Battle of Abensberg"},{"id":"wd-Q481354","title":"Battle of Oldendorf","lat":52.1667,"lng":9.25,"startYear":1633,"category":"war","wikiTitle":"Battle of Oldendorf"},{"id":"wd-Q481466","title":"Battle of Amberg","lat":49.471111111,"lng":11.831111111,"startYear":1796,"category":"war","wikiTitle":"Battle of Amberg"},{"id":"wd-Q481518","title":"Battle of Rauge","lat":57.727777777,"lng":26.909722222,"startYear":1701,"category":"war","wikiTitle":"Battle of Rauge"},{"id":"wd-Q482456","title":"Fall of Saigon","lat":10.778055555,"lng":106.696111111,"startYear":1975,"category":"war","wikiTitle":"Fall of Saigon"},{"id":"wd-Q484494","title":"Battle of Osan","lat":37.185,"lng":127.053,"startYear":1950,"category":"war","wikiTitle":"Battle of Osan"},{"id":"wd-Q486124","title":"Battle of Badr","lat":23.733333333,"lng":38.766666666,"startYear":624,"category":"war","wikiTitle":"Battle of Badr"},{"id":"wd-Q486979","title":"Battle of Ch'ungju","lat":36.966666666,"lng":127.95,"startYear":1592,"category":"war","wikiTitle":"Battle of Ch'ungju"},{"id":"wd-Q488278","title":"Battle of Uhud","lat":24.503333,"lng":39.611667,"startYear":625,"category":"war","wikiTitle":"Battle of Uhud"},{"id":"wd-Q489057","title":"Battle of Carrickfergus","lat":54.713,"lng":-5.806,"startYear":1597,"category":"war","wikiTitle":"Battle of Carrickfergus"},{"id":"wd-Q490223","title":"Battle of Bornhöved","lat":54.06666667,"lng":10.2,"startYear":1227,"category":"war","wikiTitle":"Battle of Bornhöved"},{"id":"wd-Q491188","title":"Battle of Daecheong","lat":37.825,"lng":124.7,"startYear":2009,"category":"war","wikiTitle":"Battle of Daecheong"},{"id":"wd-Q491997","title":"Battle of Macroom","lat":51.904354,"lng":-8.956947,"startYear":1650,"category":"war","wikiTitle":"Battle of Macroom"},{"id":"wd-Q492006","title":"Battle of Julianstown","lat":53.670222,"lng":-6.280191,"startYear":1641,"category":"war","wikiTitle":"Battle of Julianstown"},{"id":"wd-Q492464","title":"Battle of Masoller","lat":-31.058997,"lng":-56.084586,"startYear":1904,"category":"war","wikiTitle":"Battle of Masoller"},{"id":"wd-Q493122","title":"Battle of Sangju","lat":36.43972222,"lng":128.16972222,"startYear":1950,"category":"war","wikiTitle":"Battle of Sangju"},{"id":"wd-Q493131","title":"Battle of Pyongtaek","lat":36.9933,"lng":127.096,"startYear":1950,"category":"war","wikiTitle":"Battle of Pyongtaek"},{"id":"wd-Q493252","title":"Battle of Chonan","lat":36.81,"lng":127.1475,"startYear":1950,"category":"war","wikiTitle":"Battle of Chonan"},{"id":"wd-Q493596","title":"Battle of Knocknaclashy","lat":52.108089,"lng":-8.955361,"startYear":1651,"category":"war","wikiTitle":"Battle of Knocknaclashy"},{"id":"wd-Q493609","title":"Battle of Scarrifholis","lat":54.932431,"lng":-7.799514,"startYear":1650,"category":"war","wikiTitle":"Battle of Scarrifholis"},{"id":"wd-Q494318","title":"Battle of Hobkirk's Hill","lat":34.27444444,"lng":-80.60722222,"startYear":1781,"category":"war","wikiTitle":"Battle of Hobkirk's Hill"},{"id":"wd-Q494896","title":"Battle of Dungan's Hill","lat":53.4494,"lng":-6.73,"startYear":1647,"category":"war","wikiTitle":"Battle of Dungan's Hill"},{"id":"wd-Q497787","title":"Battle of Liscarroll","lat":52.260319,"lng":-8.803681,"startYear":1642,"category":"war","wikiTitle":"Battle of Liscarroll"},{"id":"wd-Q497806","title":"Battle of Ergeme","lat":57.805505555,"lng":25.815827777,"startYear":1560,"category":"war","wikiTitle":"Battle of Ergeme"},{"id":"wd-Q499626","title":"Battle of Stirling Bridge","lat":56.13,"lng":-3.935,"startYear":1297,"category":"war","wikiTitle":"Battle of Stirling Bridge"},{"id":"wd-Q503347","title":"Attack on Mers-El-Kebir","lat":35.719494444,"lng":-0.688888888,"startYear":1940,"category":"war","wikiTitle":"Attack on Mers-El-Kebir"},{"id":"wd-Q503982","title":"Battle of Mycale","lat":37.6909,"lng":27.1574,"startYear":-478,"category":"war","wikiTitle":"Battle of Mycale"},{"id":"wd-Q504172","title":"Battle of Guadalete","lat":36.6,"lng":-6.21667,"startYear":711,"category":"war","wikiTitle":"Battle of Guadalete"},{"id":"wd-Q504739","title":"Battle of Pydna","lat":40.251027777,"lng":22.473555555,"startYear":-167,"category":"war","wikiTitle":"Battle of Pydna"},{"id":"wd-Q505699","title":"Battle of Heiligerlee","lat":53.156944444,"lng":7.002777777,"startYear":1568,"category":"war","wikiTitle":"Battle of Heiligerlee"},{"id":"wd-Q323365","title":"Battle of Kissingen","lat":50.2,"lng":10.066667,"startYear":1866,"category":"war","wikiTitle":"Battle of Kissingen"},{"id":"wd-Q323735","title":"Battle of Warksow","lat":54.3051,"lng":13.2273,"startYear":1678,"category":"war","wikiTitle":"Battle of Warksow"},{"id":"wd-Q324344","title":"Battle of Roliça","lat":39.3136,"lng":-9.18361,"startYear":1808,"category":"war","wikiTitle":"Battle of Roliça"},{"id":"wd-Q324916","title":"Battle of Solferino","lat":45.367222222,"lng":10.566388888,"startYear":1859,"category":"war","wikiTitle":"Battle of Solferino"},{"id":"wd-Q324977","title":"Fort Driant","lat":49.07305556,"lng":6.05527778,"startYear":1944,"category":"war","wikiTitle":"Fort Driant"},{"id":"wd-Q325486","title":"Battle of Blue Licks","lat":38.428407833,"lng":-83.994647222,"startYear":1782,"category":"war","wikiTitle":"Battle of Blue Licks"},{"id":"wd-Q326417","title":"Battle of Marston Moor","lat":53.962222222,"lng":-1.254166666,"startYear":1644,"category":"war","wikiTitle":"Battle of Marston Moor"},{"id":"wd-Q326989","title":"Battle of Morgarten","lat":47.09,"lng":8.633,"startYear":1315,"category":"war","wikiTitle":"Battle of Morgarten"},{"id":"wd-Q327099","title":"Battle of Kasserine Passe","lat":35.2596,"lng":8.7424,"startYear":1943,"category":"war","wikiTitle":"Battle of Kasserine Passe"},{"id":"wd-Q328447","title":"Battle of La Belle-Famille","lat":43.2417,"lng":-79.05075,"startYear":1759,"category":"war","wikiTitle":"Battle of La Belle-Famille"},{"id":"wd-Q329534","title":"Battle of Lützen","lat":51.2167,"lng":12.1833,"startYear":1813,"category":"war","wikiTitle":"Battle of Lützen"},{"id":"wd-Q331170","title":"Battle of Montjuïc","lat":41.36722222,"lng":2.15888889,"startYear":1641,"category":"war","wikiTitle":"Battle of Montjuïc"},{"id":"wd-Q331725","title":"Battle of Domstadtl","lat":49.7383333,"lng":17.4433333,"startYear":1758,"category":"war","wikiTitle":"Battle of Domstadtl"},{"id":"wd-Q332543","title":"Battle of the Pyramids","lat":30.08333333,"lng":31.2,"startYear":1798,"category":"war","wikiTitle":"Battle of the Pyramids"},{"id":"wd-Q333088","title":"Second Battle of Cancha Rayada","lat":-35.40545938,"lng":-71.645833303,"startYear":1818,"category":"war","wikiTitle":"Second Battle of Cancha Rayada"},{"id":"wd-Q334029","title":"Battle of Bunker Hill","lat":42.376361111,"lng":-71.060777777,"startYear":1775,"category":"war","wikiTitle":"Battle of Bunker Hill"},{"id":"wd-Q335174","title":"Battle of Vila Velha","lat":39.65,"lng":-7.67,"startYear":1762,"category":"war","wikiTitle":"Battle of Vila Velha"},{"id":"wd-Q335871","title":"Battle of Bathys Ryax","lat":39.836666666,"lng":36.701111111,"startYear":872,"category":"war","wikiTitle":"Battle of Bathys Ryax"},{"id":"wd-Q337960","title":"Battle of Ratisbon","lat":49.016666666,"lng":12.1,"startYear":1809,"category":"war","wikiTitle":"Battle of Ratisbon"},{"id":"wd-Q339052","title":"Battle of Großbeeren","lat":52.35,"lng":13.3,"startYear":1813,"category":"war","wikiTitle":"Battle of Großbeeren"},{"id":"wd-Q339321","title":"Battle of the Milvian Bridge","lat":41.935555555,"lng":12.466944444,"startYear":312,"category":"war","wikiTitle":"Battle of the Milvian Bridge"},{"id":"wd-Q348998","title":"Battle of Isly","lat":34.69,"lng":-1.93,"startYear":1844,"category":"war","wikiTitle":"Battle of Isly"},{"id":"wd-Q349422","title":"Battle of Okehazama","lat":35.059972222,"lng":136.980777777,"startYear":1560,"category":"war","wikiTitle":"Battle of Okehazama"},{"id":"wd-Q349968","title":"Zawiya skirmish","lat":32.7522,"lng":12.7278,"startYear":2011,"category":"war","wikiTitle":"Zawiya skirmish"},{"id":"wd-Q364322","title":"Battle of Lundy's Lane","lat":43.089152,"lng":-79.095456,"startYear":1814,"category":"war","wikiTitle":"Battle of Lundy's Lane"},{"id":"wd-Q365640","title":"Battle of Beaver Dams","lat":43.117583333,"lng":-79.185388888,"startYear":1813,"category":"war","wikiTitle":"Battle of Beaver Dams"},{"id":"wd-Q367025","title":"Battle of Lena","lat":58.23333333,"lng":13.83333333,"startYear":1208,"category":"war","wikiTitle":"Battle of Lena"},{"id":"wd-Q367966","title":"Battle of Landshut","lat":48.53944,"lng":12.15083,"startYear":1809,"category":"war","wikiTitle":"Battle of Landshut"},{"id":"wd-Q368457","title":"Battle of Martinique","lat":14.66666667,"lng":-61,"startYear":1794,"category":"war","wikiTitle":"Battle of Martinique"},{"id":"wd-Q368596","title":"Battle of Agagia","lat":31.5439,"lng":25.9425,"startYear":1916,"category":"war","wikiTitle":"Battle of Agagia"},{"id":"wd-Q369859","title":"Battle of Belmont","lat":-29.41666667,"lng":24.36666667,"startYear":1899,"category":"war","wikiTitle":"Battle of Belmont"},{"id":"wd-Q369893","title":"Battle of Angamos","lat":-23,"lng":-71,"startYear":1879,"category":"war","wikiTitle":"Battle of Angamos"},{"id":"wd-Q370307","title":"Battle of Kandahar","lat":31.61666667,"lng":65.71666667,"startYear":1880,"category":"war","wikiTitle":"Battle of Kandahar"},{"id":"wd-Q370376","title":"Battle of Castricum","lat":52.54344,"lng":4.65426,"startYear":1799,"category":"war","wikiTitle":"Battle of Castricum"},{"id":"wd-Q370671","title":"Battle of Franklin","lat":35.9174,"lng":-86.8733,"startYear":1864,"category":"war","wikiTitle":"Battle of Franklin"},{"id":"wd-Q371298","title":"Battle of Meiktila and Mandalay","lat":20.880110146,"lng":95.859148436,"startYear":1945,"category":"war","wikiTitle":"Battle of Meiktila and Mandalay"},{"id":"wd-Q371409","title":"Battle of Stångebro","lat":58.413611,"lng":15.634167,"startYear":1598,"category":"war","wikiTitle":"Battle of Stångebro"},{"id":"wd-Q371476","title":"Operation Scorch Sword","lat":33.208333,"lng":44.525,"startYear":1980,"category":"war","wikiTitle":"Operation Scorch Sword"},{"id":"wd-Q376727","title":"Battle of Las Cumbres","lat":18.716666666,"lng":-97.316666666,"startYear":1862,"category":"war","wikiTitle":"Battle of Las Cumbres"},{"id":"wd-Q377681","title":"Battle of Oak Grove","lat":37.5154,"lng":-77.3292,"startYear":1862,"category":"war","wikiTitle":"Battle of Oak Grove"},{"id":"wd-Q378392","title":"Battle of A Shau","lat":16.2593,"lng":107.213,"startYear":1966,"category":"war","wikiTitle":"Battle of A Shau"},{"id":"wd-Q378957","title":"Battle of Ticinus","lat":45.25,"lng":8.866666666,"startYear":-217,"category":"war","wikiTitle":"Battle of Ticinus"},{"id":"wd-Q379346","title":"Battle of Tippecanoe","lat":40.506944444,"lng":-86.843888888,"startYear":1811,"category":"war","wikiTitle":"Battle of Tippecanoe"},{"id":"wd-Q380067","title":"Battle of Trzciana","lat":53.8005,"lng":19.0631,"startYear":1629,"category":"war","wikiTitle":"Battle of Trzciana"},{"id":"wd-Q382967","title":"Siege of Damascus","lat":33.512222222,"lng":36.298333333,"startYear":1148,"category":"war","wikiTitle":"Siege of Damascus"},{"id":"wd-Q383067","title":"Battle of Saragarhi","lat":33.55474665,"lng":70.886904138,"startYear":1897,"category":"war","wikiTitle":"Battle of Saragarhi"},{"id":"wd-Q383614","title":"Battle of Kohima","lat":25.667645,"lng":94.103175,"startYear":1944,"category":"war","wikiTitle":"Battle of Kohima"},{"id":"wd-Q384413","title":"Battle of Bilin River","lat":17.182429,"lng":97.246706,"startYear":1942,"category":"war","wikiTitle":"Battle of Bilin River"},{"id":"wd-Q384729","title":"Second Battle of Clusium","lat":43.016667,"lng":11.95,"startYear":-81,"category":"war","wikiTitle":"Second Battle of Clusium"},{"id":"wd-Q385180","title":"Battle of the Yalu River","lat":39.213888888,"lng":123.126388888,"startYear":1894,"category":"war","wikiTitle":"Battle of the Yalu River"},{"id":"wd-Q385604","title":"Battle of Dara","lat":37.18,"lng":40.955,"startYear":530,"category":"war","wikiTitle":"Battle of Dara"},{"id":"wd-Q386051","title":"Battle of Cuito Cuanavale","lat":-15.16388889,"lng":19.17305556,"startYear":1987,"category":"war","wikiTitle":"Battle of Cuito Cuanavale"},{"id":"wd-Q386578","title":"First Battle of Bedriacum","lat":45.09,"lng":10.14,"startYear":69,"category":"war","wikiTitle":"First Battle of Bedriacum"},{"id":"wd-Q386601","title":"Battle of Kaiserslautern","lat":49.47027778,"lng":7.76361111,"startYear":1793,"category":"war","wikiTitle":"Battle of Kaiserslautern"},{"id":"wd-Q387215","title":"Battle of Loano","lat":44.1167,"lng":8.25,"startYear":1795,"category":"war","wikiTitle":"Battle of Loano"},{"id":"wd-Q387238","title":"Battle of Tlatelolco","lat":19.45108333,"lng":-99.1375,"startYear":1473,"category":"war","wikiTitle":"Battle of Tlatelolco"},{"id":"wd-Q388210","title":"Battle of Carabobo","lat":10.0045,"lng":-68.1657,"startYear":1821,"category":"war","wikiTitle":"Battle of Carabobo"},{"id":"wd-Q388689","title":"Battle of York","lat":43.63887,"lng":-79.40403,"startYear":1813,"category":"war","wikiTitle":"Battle of York"},{"id":"wd-Q389349","title":"Battle of Bussaco","lat":40.344444444,"lng":-8.3375,"startYear":1810,"category":"war","wikiTitle":"Battle of Bussaco"},{"id":"wd-Q389540","title":"Battle of the Save","lat":46.418611111,"lng":15.871388888,"startYear":388,"category":"war","wikiTitle":"Battle of the Save"},{"id":"wd-Q1787589","title":"Battle of Aussig","lat":50.6598,"lng":13.9648,"startYear":1426,"category":"war","wikiTitle":"Battle of Aussig"},{"id":"wd-Q1788393","title":"Battle of Shiroyama","lat":31.597222222,"lng":130.549722222,"startYear":1877,"category":"war","wikiTitle":"Battle of Shiroyama"},{"id":"wd-Q1788933","title":"Battle of Dertosa","lat":40.8,"lng":0.51666667,"startYear":-214,"category":"war","wikiTitle":"Battle of Dertosa"},{"id":"wd-Q1788937","title":"Battle of the Marshes","lat":31.5422,"lng":47.7067,"startYear":1984,"category":"war","wikiTitle":"Battle of the Marshes"},{"id":"wd-Q1792257","title":"Battle of Sparrsätra","lat":59.694166666,"lng":16.975833333,"startYear":1247,"category":"war","wikiTitle":"Battle of Sparrsätra"},{"id":"wd-Q1792643","title":"Battle of Río Salado","lat":36.045,"lng":-5.615,"startYear":1340,"category":"war","wikiTitle":"Battle of Río Salado"},{"id":"wd-Q1793109","title":"Battle of Chippawa","lat":43.052222222,"lng":-79.024722222,"startYear":1814,"category":"war","wikiTitle":"Battle of Chippawa"},{"id":"wd-Q1794521","title":"Battle of Hova","lat":58.85,"lng":14.216666666,"startYear":1275,"category":"war","wikiTitle":"Battle of Hova"},{"id":"wd-Q1794532","title":"Battle of Åsle","lat":58.18,"lng":13.652,"startYear":1389,"category":"war","wikiTitle":"Battle of Åsle"},{"id":"wd-Q1799032","title":"Battle of Camerinum","lat":43.140278,"lng":13.068889,"startYear":-294,"category":"war","wikiTitle":"Battle of Camerinum"},{"id":"wd-Q1804983","title":"Battle of Baghdad","lat":33.314722222,"lng":44.420833333,"startYear":2003,"category":"war","wikiTitle":"Battle of Baghdad"},{"id":"wd-Q1806377","title":"Battle of Sezawa","lat":35.896027777,"lng":138.244583333,"startYear":1542,"category":"war","wikiTitle":"Battle of Sezawa"},{"id":"wd-Q1807251","title":"Battle of La Higueruela","lat":37.237513888,"lng":-3.707944444,"startYear":1431,"category":"war","wikiTitle":"Battle of La Higueruela"},{"id":"wd-Q1808450","title":"Battle of Buena Vista","lat":25.336958333,"lng":-101.046438888,"startYear":1847,"category":"war","wikiTitle":"Battle of Buena Vista"},{"id":"wd-Q1809351","title":"Battle of Gaines's Mill","lat":37.579,"lng":-77.2872,"startYear":1862,"category":"war","wikiTitle":"Battle of Gaines's Mill"},{"id":"wd-Q1809645","title":"Battle of Szack","lat":51.4878,"lng":23.9297,"startYear":1939,"category":"war","wikiTitle":"Battle of Szack"},{"id":"wd-Q1811438","title":"Battle of Waxhaws","lat":34.74195278,"lng":-80.62579167,"startYear":1780,"category":"war","wikiTitle":"Battle of Waxhaws"},{"id":"wd-Q1811747","title":"Battle of Boulgarophygon","lat":41.43333333,"lng":27.1,"startYear":896,"category":"war","wikiTitle":"Battle of Boulgarophygon"},{"id":"wd-Q1814334","title":"Battle of Tomaszów Lubelski","lat":50.45,"lng":23.4167,"startYear":1939,"category":"war","wikiTitle":"Battle of Tomaszów Lubelski"},{"id":"wd-Q1818410","title":"Battle of Maserfield","lat":52.86,"lng":-3.054,"startYear":642,"category":"war","wikiTitle":"Battle of Maserfield"},{"id":"wd-Q1819989","title":"Battle of Clark's Mill","lat":36.9207,"lng":-92.4888,"startYear":1862,"category":"war","wikiTitle":"Battle of Clark's Mill"},{"id":"wd-Q1821843","title":"Battle of Fort Pillow","lat":35.6324,"lng":-89.8487,"startYear":1864,"category":"war","wikiTitle":"Battle of Fort Pillow"},{"id":"wd-Q1834971","title":"Battle of Cotton Plant","lat":35.0365,"lng":-91.293,"startYear":1862,"category":"war","wikiTitle":"Battle of Cotton Plant"},{"id":"wd-Q1836863","title":"Battle of Belvoir Castle","lat":32.59556389,"lng":35.52161111,"startYear":1182,"category":"war","wikiTitle":"Battle of Belvoir Castle"},{"id":"wd-Q1838038","title":"Siege of Bergen op Zoom","lat":51.5,"lng":4.3,"startYear":1622,"category":"war","wikiTitle":"Siege of Bergen op Zoom"},{"id":"wd-Q1840117","title":"Battle of Quebec","lat":46.815,"lng":-71.202222222,"startYear":1775,"category":"war","wikiTitle":"Battle of Quebec"},{"id":"wd-Q1840768","title":"Battle of Namozine Church","lat":37.24888889,"lng":-77.72555556,"startYear":1865,"category":"war","wikiTitle":"Battle of Namozine Church"},{"id":"wd-Q1848554","title":"Battle of Czajánek's barracks","lat":49.67780556,"lng":18.34456111,"startYear":1939,"category":"war","wikiTitle":"Battle of Czajánek's barracks"},{"id":"wd-Q1849818","title":"Battle of Edgcote","lat":52.114444444,"lng":-1.247222222,"startYear":1469,"category":"war","wikiTitle":"Battle of Edgcote"},{"id":"wd-Q1850527","title":"Battle of Baltimore","lat":39.263333333,"lng":-76.58,"startYear":1814,"category":"war","wikiTitle":"Battle of Baltimore"},{"id":"wd-Q1851266","title":"Battle of Cepeda","lat":-33,"lng":-61,"startYear":1820,"category":"war","wikiTitle":"Battle of Cepeda"},{"id":"wd-Q1851834","title":"Battle of Borovo Selo","lat":45.381,"lng":18.9575,"startYear":1991,"category":"war","wikiTitle":"Battle of Borovo Selo"},{"id":"wd-Q1852373","title":"Battle of the Standard","lat":54.36666667,"lng":-1.45,"startYear":1138,"category":"war","wikiTitle":"Battle of the Standard"},{"id":"wd-Q1853552","title":"Battle of Campbell's Station","lat":35.8846,"lng":-84.1539,"startYear":1863,"category":"war","wikiTitle":"Battle of Campbell's Station"},{"id":"wd-Q1855461","title":"Battle of Lincoln","lat":53.2333,"lng":-0.538653,"startYear":1217,"category":"war","wikiTitle":"Battle of Lincoln"},{"id":"wd-Q1855781","title":"Battle of Nikiou","lat":30.412222222,"lng":30.853611111,"startYear":646,"category":"war","wikiTitle":"Battle of Nikiou"},{"id":"wd-Q1862475","title":"Battle of Marsaglia","lat":44.45,"lng":7.96667,"startYear":1693,"category":"war","wikiTitle":"Battle of Marsaglia"},{"id":"wd-Q1862538","title":"Battle of Cobleskill","lat":42.679167,"lng":-74.485556,"startYear":1778,"category":"war","wikiTitle":"Battle of Cobleskill"},{"id":"wd-Q1867306","title":"Second Battle of Donaldsonville","lat":30.10833333,"lng":-90.99138889,"startYear":1863,"category":"war","wikiTitle":"Second Battle of Donaldsonville"},{"id":"wd-Q1870843","title":"Battle of Chusto-Talasah","lat":36.2823,"lng":-95.9502,"startYear":1861,"category":"war","wikiTitle":"Battle of Chusto-Talasah"},{"id":"wd-Q1872466","title":"Battle of White Oak Road","lat":37.14844444,"lng":-77.51966667,"startYear":1865,"category":"war","wikiTitle":"Battle of White Oak Road"},{"id":"wd-Q1875790","title":"Air battle over the Ore Mountains","lat":50.43861111,"lng":13.05777778,"startYear":1944,"category":"war","wikiTitle":"Air battle over the Ore Mountains"},{"id":"wd-Q1885831","title":"Battle of Gerberoy","lat":49.535,"lng":1.8506,"startYear":1435,"category":"war","wikiTitle":"Battle of Gerberoy"},{"id":"wd-Q1886301","title":"Battle of Wilson's Wharf","lat":37.3067,"lng":-76.9967,"startYear":1864,"category":"war","wikiTitle":"Battle of Wilson's Wharf"},{"id":"wd-Q1887009","title":"Battle of Morlaix","lat":48.63,"lng":-3.74,"startYear":1342,"category":"war","wikiTitle":"Battle of Morlaix"},{"id":"wd-Q1887057","title":"Battle of Halidon Hill","lat":55.7875,"lng":-2.05,"startYear":1333,"category":"war","wikiTitle":"Battle of Halidon Hill"},{"id":"wd-Q1887494","title":"Battle of Uji","lat":34.880833333,"lng":135.779444444,"startYear":1180,"category":"war","wikiTitle":"Battle of Uji"},{"id":"wd-Q1887733","title":"Battle of Bovianum","lat":41.483333,"lng":14.466667,"startYear":-304,"category":"war","wikiTitle":"Battle of Bovianum"},{"id":"wd-Q1887932","title":"Battle of Castelfidardo","lat":43.216666666,"lng":13.383333333,"startYear":1860,"category":"war","wikiTitle":"Battle of Castelfidardo"},{"id":"wd-Q1888562","title":"Action of 5 October 1804","lat":36.89663,"lng":-7.895033,"startYear":1804,"category":"war","wikiTitle":"Action of 5 October 1804"},{"id":"wd-Q1889668","title":"Battle of Rusokastro","lat":42.46694444,"lng":27.20166667,"startYear":1332,"category":"war","wikiTitle":"Battle of Rusokastro"},{"id":"wd-Q1890225","title":"Battle of Verona","lat":45.4333,"lng":10.9833,"startYear":402,"category":"war","wikiTitle":"Battle of Verona"},{"id":"wd-Q1891631","title":"Battle for The Hague","lat":52.083333333,"lng":4.316666666,"startYear":1940,"category":"war","wikiTitle":"Battle for The Hague"},{"id":"wd-Q1892080","title":"Battle of Coutras","lat":45.0417,"lng":-0.12722,"startYear":1587,"category":"war","wikiTitle":"Battle of Coutras"},{"id":"wd-Q1894062","title":"Battle of Tagliacozzo","lat":42.06583,"lng":13.25667,"startYear":1268,"category":"war","wikiTitle":"Battle of Tagliacozzo"},{"id":"wd-Q1894305","title":"Battle of Athens","lat":40.585,"lng":-91.696,"startYear":1861,"category":"war","wikiTitle":"Battle of Athens"},{"id":"wd-Q1895789","title":"Battle of Faventia","lat":44.285555555,"lng":11.883333333,"startYear":542,"category":"war","wikiTitle":"Battle of Faventia"},{"id":"wd-Q1896360","title":"Battle of Skopje","lat":42,"lng":21.4333,"startYear":1004,"category":"war","wikiTitle":"Battle of Skopje"},{"id":"wd-Q1898572","title":"Battle of Wijnendale","lat":51.0922,"lng":3.06611,"startYear":1708,"category":"war","wikiTitle":"Battle of Wijnendale"},{"id":"wd-Q1913209","title":"Battle of Axpoele","lat":51.06,"lng":3.41,"startYear":1128,"category":"war","wikiTitle":"Battle of Axpoele"},{"id":"wd-Q1915417","title":"Battle of Santa Cruz de Tenerife","lat":28.47388889,"lng":-16.24305556,"startYear":1706,"category":"war","wikiTitle":"Battle of Santa Cruz de Tenerife"},{"id":"wd-Q1919712","title":"Battle of Nevele","lat":50.9628,"lng":3.5321,"startYear":1381,"category":"war","wikiTitle":"Battle of Nevele"},{"id":"wd-Q1930278","title":"Battle of Karameh","lat":31.95,"lng":35.58,"startYear":1968,"category":"war","wikiTitle":"Battle of Karameh"},{"id":"wd-Q1933601","title":"Battle of Alkmaar","lat":52.634444444,"lng":4.746388888,"startYear":1799,"category":"war","wikiTitle":"Battle of Alkmaar"},{"id":"wd-Q1934137","title":"Battle of Torvioll","lat":41.76666667,"lng":20.36666667,"startYear":1444,"category":"war","wikiTitle":"Battle of Torvioll"},{"id":"wd-Q1934345","title":"Battle of Malvern Hill","lat":37.4125,"lng":-77.25,"startYear":1862,"category":"war","wikiTitle":"Battle of Malvern Hill"},{"id":"wd-Q815207","title":"Siege of Silistra (1854)","lat":44.118611111,"lng":27.260277777,"startYear":1854,"category":"war","wikiTitle":"Siege of Silistra (1854)"},{"id":"wd-Q820263","title":"Battle of Systerbäck","lat":60.1211,"lng":29.9781,"startYear":1703,"category":"war","wikiTitle":"Battle of Systerbäck"},{"id":"wd-Q820617","title":"Battle of the Sierra Guadalupe","lat":39.4833,"lng":-5.4,"startYear":1936,"category":"war","wikiTitle":"Battle of the Sierra Guadalupe"},{"id":"wd-Q821120","title":"Battle of Wiesloch","lat":49.2935,"lng":8.6721,"startYear":1799,"category":"war","wikiTitle":"Battle of Wiesloch"},{"id":"wd-Q821283","title":"Battle of Warsaw","lat":52.3,"lng":20.8167,"startYear":1920,"category":"war","wikiTitle":"Battle of Warsaw"},{"id":"wd-Q826083","title":"Battle of the Trench","lat":24.4667,"lng":39.6,"startYear":627,"category":"war","wikiTitle":"Battle of the Trench"},{"id":"wd-Q826133","title":"Crossing of the Düna","lat":56.98333333,"lng":24.06666667,"startYear":1701,"category":"war","wikiTitle":"Crossing of the Düna"},{"id":"wd-Q829443","title":"Battle of Savenay","lat":47.361944444,"lng":-1.940555555,"startYear":1793,"category":"war","wikiTitle":"Battle of Savenay"},{"id":"wd-Q830059","title":"Battle of Red Cliffs","lat":29.869722222,"lng":113.620277777,"startYear":208,"category":"war","wikiTitle":"Battle of Red Cliffs"},{"id":"wd-Q830246","title":"Battle of La Marfée","lat":49.7025,"lng":4.94111,"startYear":1641,"category":"war","wikiTitle":"Battle of La Marfée"},{"id":"wd-Q830626","title":"Battle of Bouvines","lat":50.58,"lng":3.225,"startYear":1214,"category":"war","wikiTitle":"Battle of Bouvines"},{"id":"wd-Q830878","title":"Battle of Stiklestad","lat":63.796666666,"lng":11.566666666,"startYear":1030,"category":"war","wikiTitle":"Battle of Stiklestad"},{"id":"wd-Q832683","title":"Battle of Pavón","lat":-33.25,"lng":-60.216666666,"startYear":1861,"category":"war","wikiTitle":"Battle of Pavón"},{"id":"wd-Q833861","title":"Battle of Saragossa","lat":41.608611111,"lng":-0.889722222,"startYear":1710,"category":"war","wikiTitle":"Battle of Saragossa"},{"id":"wd-Q835300","title":"Battle of Chevilly","lat":48.7663,"lng":2.3533,"startYear":1870,"category":"war","wikiTitle":"Battle of Chevilly"},{"id":"wd-Q835585","title":"Battle of Mingolsheim","lat":49.216844444,"lng":8.658288888,"startYear":1622,"category":"war","wikiTitle":"Battle of Mingolsheim"},{"id":"wd-Q835869","title":"Battle of Wiesloch","lat":49.2935,"lng":8.67208,"startYear":1632,"category":"war","wikiTitle":"Battle of Wiesloch"},{"id":"wd-Q837787","title":"Battle of Novara","lat":45.43138889,"lng":8.71611111,"startYear":1849,"category":"war","wikiTitle":"Battle of Novara"},{"id":"wd-Q839234","title":"Battle of Grotniki","lat":50.302777777,"lng":20.810555555,"startYear":1439,"category":"war","wikiTitle":"Battle of Grotniki"},{"id":"wd-Q840006","title":"Battle of Stockach","lat":47.51,"lng":9.1,"startYear":1800,"category":"war","wikiTitle":"Battle of Stockach"},{"id":"wd-Q840012","title":"Battle of Tournay","lat":50.6,"lng":3.383333,"startYear":1794,"category":"war","wikiTitle":"Battle of Tournay"},{"id":"wd-Q840790","title":"Battle of Saltanovka","lat":53.812705,"lng":30.230741,"startYear":1812,"category":"war","wikiTitle":"Battle of Saltanovka"},{"id":"wd-Q841131","title":"Battle of Manassas Gap","lat":38.914,"lng":-78.114,"startYear":1863,"category":"war","wikiTitle":"Battle of Manassas Gap"},{"id":"wd-Q841150","title":"Battle of Boonsboro","lat":39.5254,"lng":-77.6632,"startYear":1863,"category":"war","wikiTitle":"Battle of Boonsboro"},{"id":"wd-Q841211","title":"Battle of Nedao","lat":44.933333333,"lng":19.016666666,"startYear":454,"category":"war","wikiTitle":"Battle of Nedao"},{"id":"wd-Q841268","title":"Battle of Gettysburg, First Day","lat":39.818,"lng":-77.2325,"startYear":1863,"category":"war","wikiTitle":"Battle of Gettysburg, First Day"},{"id":"wd-Q841278","title":"Battle of San Jacinto","lat":29.749253,"lng":-95.081424,"startYear":1836,"category":"war","wikiTitle":"Battle of San Jacinto"},{"id":"wd-Q841297","title":"Battle of Williamsport","lat":39.63333333,"lng":-77.71666667,"startYear":1863,"category":"war","wikiTitle":"Battle of Williamsport"},{"id":"wd-Q842361","title":"Battle of Gvozd Mountain","lat":44.9,"lng":15.516666666,"startYear":1097,"category":"war","wikiTitle":"Battle of Gvozd Mountain"},{"id":"wd-Q842670","title":"Battle of Bulair","lat":40.5263,"lng":26.7948,"startYear":1913,"category":"war","wikiTitle":"Battle of Bulair"},{"id":"wd-Q842796","title":"First Battle of St Albans","lat":51.7487,"lng":0.339,"startYear":1455,"category":"war","wikiTitle":"First Battle of St Albans"},{"id":"wd-Q844639","title":"Battle of Djahy","lat":32.7667,"lng":35.3333,"startYear":-1177,"category":"war","wikiTitle":"Battle of Djahy"},{"id":"wd-Q845845","title":"Battle of Kraaipan","lat":-26.2969,"lng":25.3064,"startYear":1899,"category":"war","wikiTitle":"Battle of Kraaipan"},{"id":"wd-Q846491","title":"Battle of Vercellae","lat":45.316667,"lng":8.416667,"startYear":-100,"category":"war","wikiTitle":"Battle of Vercellae"},{"id":"wd-Q846674","title":"Battles of Saratoga","lat":42.998888888,"lng":-73.6375,"startYear":1777,"category":"war","wikiTitle":"Battles of Saratoga"},{"id":"wd-Q847287","title":"Battle of Montgisard","lat":31.86,"lng":34.92,"startYear":1177,"category":"war","wikiTitle":"Battle of Montgisard"},{"id":"wd-Q847402","title":"Battle of Pengcheng","lat":34.26666667,"lng":117.16666667,"startYear":-204,"category":"war","wikiTitle":"Battle of Pengcheng"},{"id":"wd-Q848056","title":"Battle of the Metaurus","lat":43.782373,"lng":13.014507,"startYear":-206,"category":"war","wikiTitle":"Battle of the Metaurus"},{"id":"wd-Q848741","title":"Battle of Cockpit Point","lat":38.59125,"lng":-77.73152778,"startYear":1862,"category":"war","wikiTitle":"Battle of Cockpit Point"},{"id":"wd-Q849020","title":"Battle of Branisko","lat":49.017666666,"lng":20.856972222,"startYear":1849,"category":"war","wikiTitle":"Battle of Branisko"},{"id":"wd-Q849474","title":"Battle of Qarqar","lat":35.742646,"lng":36.330543,"startYear":-852,"category":"war","wikiTitle":"Battle of Qarqar"},{"id":"wd-Q849653","title":"Battle of Thapsus","lat":35.624444444,"lng":11.047777777,"startYear":-45,"category":"war","wikiTitle":"Battle of Thapsus"},{"id":"wd-Q851504","title":"Battle of Vouille","lat":46.5833,"lng":0.3333,"startYear":507,"category":"war","wikiTitle":"Battle of Vouille"},{"id":"wd-Q852527","title":"Battle of Bábolna","lat":47.641666666,"lng":17.978888888,"startYear":1848,"category":"war","wikiTitle":"Battle of Bábolna"},{"id":"wd-Q853635","title":"Battle of Suessula","lat":40.98333333,"lng":14.4,"startYear":-342,"category":"war","wikiTitle":"Battle of Suessula"},{"id":"wd-Q853754","title":"Battle of Saule","lat":56.115,"lng":23.51444444,"startYear":1236,"category":"war","wikiTitle":"Battle of Saule"},{"id":"wd-Q854523","title":"Croatian–Bulgarian battle of 927","lat":45,"lng":16.5,"startYear":926,"category":"war","wikiTitle":"Croatian–Bulgarian battle of 927"},{"id":"wd-Q855271","title":"Battle of Jemappes","lat":50.4559,"lng":3.8886,"startYear":1792,"category":"war","wikiTitle":"Battle of Jemappes"},{"id":"wd-Q855429","title":"Battle of Ligny","lat":50.512222222,"lng":4.575,"startYear":1815,"category":"war","wikiTitle":"Battle of Ligny"},{"id":"wd-Q855628","title":"Battle of Port Walthall Junction","lat":37.3116,"lng":-77.4028,"startYear":1864,"category":"war","wikiTitle":"Battle of Port Walthall Junction"},{"id":"wd-Q855913","title":"Battle of McDowell","lat":38.3247,"lng":-79.4754,"startYear":1862,"category":"war","wikiTitle":"Battle of McDowell"},{"id":"wd-Q855966","title":"Battle of Goldsboro Bridge","lat":35.3396,"lng":-78.0288,"startYear":1862,"category":"war","wikiTitle":"Battle of Goldsboro Bridge"},{"id":"wd-Q857434","title":"Battle of Caldiero","lat":45.423888888,"lng":11.190555555,"startYear":1805,"category":"war","wikiTitle":"Battle of Caldiero"},{"id":"wd-Q857860","title":"Battle of Campo Tenese","lat":39.875,"lng":16.06666667,"startYear":1806,"category":"war","wikiTitle":"Battle of Campo Tenese"},{"id":"wd-Q858913","title":"Battle of Cassano","lat":45.5333,"lng":9.51667,"startYear":1799,"category":"war","wikiTitle":"Battle of Cassano"},{"id":"wd-Q858922","title":"Battle of Cassel","lat":50.8006,"lng":2.4883,"startYear":1071,"category":"war","wikiTitle":"Battle of Cassel"},{"id":"wd-Q859756","title":"Battle of Azukizaka","lat":34.9303109,"lng":137.1782977,"startYear":1542,"category":"war","wikiTitle":"Battle of Azukizaka"},{"id":"wd-Q859988","title":"First Battle of Mesilla","lat":32.27204,"lng":-106.80359,"startYear":1861,"category":"war","wikiTitle":"First Battle of Mesilla"},{"id":"wd-Q860517","title":"Battle of Hitotoribashi","lat":37.498305555,"lng":140.388472222,"startYear":1586,"category":"war","wikiTitle":"Battle of Hitotoribashi"},{"id":"wd-Q860789","title":"Battle of Suriagehara","lat":37.562138888,"lng":140.066333333,"startYear":1589,"category":"war","wikiTitle":"Battle of Suriagehara"},{"id":"wd-Q862220","title":"Battle of Saint-Eustache","lat":45.5575,"lng":-73.8897,"startYear":1837,"category":"war","wikiTitle":"Battle of Saint-Eustache"},{"id":"wd-Q862751","title":"Battle of Long Island","lat":40.665,"lng":-73.981,"startYear":1776,"category":"war","wikiTitle":"Battle of Long Island"},{"id":"wd-Q867154","title":"Battle of Château-Thierry","lat":49.04,"lng":3.4,"startYear":1814,"category":"war","wikiTitle":"Battle of Château-Thierry"},{"id":"wd-Q867236","title":"Battle of Werl","lat":51.55,"lng":7.92,"startYear":1585,"category":"war","wikiTitle":"Battle of Werl"},{"id":"wd-Q868027","title":"Battle of Clontarf","lat":53.365,"lng":-6.1975,"startYear":1014,"category":"war","wikiTitle":"Battle of Clontarf"},{"id":"wd-Q868249","title":"Battle of Colenso","lat":-28.73416667,"lng":29.8225,"startYear":1899,"category":"war","wikiTitle":"Battle of Colenso"},{"id":"wd-Q870783","title":"Battle of Rhone Crossing","lat":44.138333333,"lng":4.809722222,"startYear":-217,"category":"war","wikiTitle":"Battle of Rhone Crossing"},{"id":"wd-Q872364","title":"Battle of Kleverhamm","lat":51.815142,"lng":6.144791,"startYear":1397,"category":"war","wikiTitle":"Battle of Kleverhamm"},{"id":"wd-Q872741","title":"Battle of Seckenheim","lat":49.4889,"lng":8.46917,"startYear":1462,"category":"war","wikiTitle":"Battle of Seckenheim"},{"id":"wd-Q873038","title":"Battle of Châteaudun","lat":48.0717,"lng":1.33867,"startYear":1870,"category":"war","wikiTitle":"Battle of Châteaudun"},{"id":"wd-Q873991","title":"Battle of Mysunde","lat":54.519528,"lng":9.720361,"startYear":1864,"category":"war","wikiTitle":"Battle of Mysunde"},{"id":"wd-Q877777","title":"Battle of Gammelsdorf","lat":48.5501,"lng":11.9451,"startYear":1313,"category":"war","wikiTitle":"Battle of Gammelsdorf"},{"id":"wd-Q879327","title":"Battle of Hiltersried","lat":49.3839361,"lng":12.5794167,"startYear":1433,"category":"war","wikiTitle":"Battle of Hiltersried"},{"id":"wd-Q880348","title":"Battle of Aldenhoven (1794)","lat":50.8958,"lng":6.28306,"startYear":1794,"category":"war","wikiTitle":"Battle of Aldenhoven (1794)"},{"id":"wd-Q885253","title":"Battle of Bloody Brook","lat":42.4831,"lng":-72.6037,"startYear":1675,"category":"war","wikiTitle":"Battle of Bloody Brook"},{"id":"wd-Q888904","title":"Battle of Ajnadayn","lat":31.68333333,"lng":34.95,"startYear":634,"category":"war","wikiTitle":"Battle of Ajnadayn"},{"id":"wd-Q890341","title":"Battle of Thymbra","lat":38.666667,"lng":27.833333,"startYear":-546,"category":"war","wikiTitle":"Battle of Thymbra"},{"id":"wd-Q892169","title":"Battle of the Utus","lat":43.61,"lng":24.68,"startYear":477,"category":"war","wikiTitle":"Battle of the Utus"},{"id":"wd-Q895686","title":"Battle of Sievershausen","lat":52.376,"lng":10.1127,"startYear":1553,"category":"war","wikiTitle":"Battle of Sievershausen"},{"id":"wd-Q897302","title":"Battle of Podhajce","lat":49.26944444,"lng":25.13611111,"startYear":1667,"category":"war","wikiTitle":"Battle of Podhajce"},{"id":"wd-Q897933","title":"Battle of Raab","lat":47.644162758,"lng":17.662584368,"startYear":1809,"category":"war","wikiTitle":"Battle of Raab"},{"id":"wd-Q898338","title":"Battle of Turnhout","lat":51.316666666,"lng":4.95,"startYear":1789,"category":"war","wikiTitle":"Battle of Turnhout"},{"id":"wd-Q900945","title":"Battle of Lodi","lat":45.319166666,"lng":9.508888888,"startYear":1796,"category":"war","wikiTitle":"Battle of Lodi"},{"id":"wd-Q901518","title":"Battle of Montebello","lat":45,"lng":9.1,"startYear":1800,"category":"war","wikiTitle":"Battle of Montebello"},{"id":"wd-Q902524","title":"Battle of Rovereto","lat":45.8833,"lng":11.05,"startYear":1796,"category":"war","wikiTitle":"Battle of Rovereto"},{"id":"wd-Q2888946","title":"Battle of Killiecrankie","lat":56.751388888,"lng":-3.785,"startYear":1689,"category":"war","wikiTitle":"Battle of Killiecrankie"},{"id":"wd-Q2888951","title":"Battle of Kızıl Tepe","lat":40.616666666,"lng":43.1,"startYear":1877,"category":"war","wikiTitle":"Battle of Kızıl Tepe"},{"id":"wd-Q2888964","title":"Battle of Kojima","lat":34.555972222,"lng":133.799638888,"startYear":1185,"category":"war","wikiTitle":"Battle of Kojima"},{"id":"wd-Q2888991","title":"Battle of La Bruffière","lat":47.013888888,"lng":-1.196388888,"startYear":1796,"category":"war","wikiTitle":"Battle of La Bruffière"},{"id":"wd-Q2888993","title":"Battle of L'Aiguillon","lat":46.671111111,"lng":-1.827777777,"startYear":1815,"category":"war","wikiTitle":"Battle of L'Aiguillon"},{"id":"wd-Q2888995","title":"Battle of La Ceriseraie","lat":47.344053611,"lng":-1.467928888,"startYear":1795,"category":"war","wikiTitle":"Battle of La Ceriseraie"},{"id":"wd-Q2889013","title":"Battle of La Châtaigneraie","lat":46.65,"lng":-0.739166666,"startYear":1794,"category":"war","wikiTitle":"Battle of La Châtaigneraie"},{"id":"wd-Q2889021","title":"Battle of La Châtaigneraie","lat":46.65,"lng":-0.739166666,"startYear":1793,"category":"war","wikiTitle":"Battle of La Châtaigneraie"},{"id":"wd-Q2889023","title":"Battle of La Cornuaille","lat":47.511666666,"lng":-0.983611111,"startYear":1795,"category":"war","wikiTitle":"Battle of La Cornuaille"},{"id":"wd-Q2889028","title":"Battle of Kurikara","lat":36.661694444,"lng":136.821027777,"startYear":1183,"category":"war","wikiTitle":"Battle of Kurikara"},{"id":"wd-Q2889029","title":"Battle of La Croix-Avranchin","lat":48.546666666,"lng":-1.382222222,"startYear":1795,"category":"war","wikiTitle":"Battle of La Croix-Avranchin"},{"id":"wd-Q2889033","title":"Battle of La Favorite","lat":45.184941666,"lng":10.800655555,"startYear":1797,"category":"war","wikiTitle":"Battle of La Favorite"},{"id":"wd-Q2889037","title":"Battle of La Garnache","lat":46.891388888,"lng":-1.829722222,"startYear":1793,"category":"war","wikiTitle":"Battle of La Garnache"},{"id":"wd-Q2889042","title":"Battle of La Flocellière","lat":46.833055555,"lng":-0.859444444,"startYear":1799,"category":"war","wikiTitle":"Battle of La Flocellière"},{"id":"wd-Q2889049","title":"Battle of La Gravelle","lat":48.072777777,"lng":-1.015833333,"startYear":1793,"category":"war","wikiTitle":"Battle of La Gravelle"},{"id":"wd-Q2889055","title":"Battle of La Pellerine","lat":48.315555555,"lng":-1.049722222,"startYear":1796,"category":"war","wikiTitle":"Battle of La Pellerine"},{"id":"wd-Q2889059","title":"Battle of La Horgne","lat":49.627777777,"lng":4.671111111,"startYear":1940,"category":"war","wikiTitle":"Battle of La Horgne"},{"id":"wd-Q2889061","title":"Battle of La Roche-sur-Yon","lat":46.669444444,"lng":-1.418611111,"startYear":1793,"category":"war","wikiTitle":"Battle of La Roche-sur-Yon"},{"id":"wd-Q2889063","title":"Battle of La Roche-sur-Yon","lat":46.669444444,"lng":-1.418611111,"startYear":1794,"category":"war","wikiTitle":"Battle of La Roche-sur-Yon"},{"id":"wd-Q2889067","title":"Second Battle of La Puerta","lat":10.038333333,"lng":-67.489166666,"startYear":1814,"category":"war","wikiTitle":"Second Battle of La Puerta"},{"id":"wd-Q2889080","title":"Battle of Lacolle","lat":45.083333,"lng":-73.366667,"startYear":1838,"category":"war","wikiTitle":"Battle of Lacolle"},{"id":"wd-Q2889085","title":"Battle of Ladysmith","lat":-28.503555555,"lng":29.788694444,"startYear":1899,"category":"war","wikiTitle":"Battle of Ladysmith"},{"id":"wd-Q2889092","title":"Battle of Las Cahobas","lat":18.816666666,"lng":-71.933333333,"startYear":1795,"category":"war","wikiTitle":"Battle of Las Cahobas"},{"id":"wd-Q2889107","title":"Battle of Landskrona","lat":55.9,"lng":12.983333333,"startYear":1677,"category":"war","wikiTitle":"Battle of Landskrona"},{"id":"wd-Q2889117","title":"Friendly fire incident at Sangin","lat":31.589166666,"lng":64.363333333,"startYear":2006,"category":"war","wikiTitle":"Friendly fire incident at Sangin"},{"id":"wd-Q2889121","title":"Battle of Laval","lat":48.072777777,"lng":-0.77,"startYear":1793,"category":"war","wikiTitle":"Battle of Laval"},{"id":"wd-Q2889123","title":"Battle of Legé","lat":46.886388888,"lng":-1.5975,"startYear":1793,"category":"war","wikiTitle":"Battle of Legé"},{"id":"wd-Q2889125","title":"Battle of Legé","lat":46.886388888,"lng":-1.5975,"startYear":1794,"category":"war","wikiTitle":"Battle of Legé"},{"id":"wd-Q2889133","title":"Battle of Leliefontein","lat":-25.96666667,"lng":30.05,"startYear":1900,"category":"war","wikiTitle":"Battle of Leliefontein"},{"id":"wd-Q2889140","title":"Battle of Lifré","lat":48.214166666,"lng":-1.506666666,"startYear":1794,"category":"war","wikiTitle":"Battle of Lifré"},{"id":"wd-Q2889143","title":"Battle of Locminé","lat":47.8875,"lng":-2.834444444,"startYear":1796,"category":"war","wikiTitle":"Battle of Locminé"},{"id":"wd-Q2889144","title":"Battle of Locminé","lat":47.8875,"lng":-2.834444444,"startYear":1799,"category":"war","wikiTitle":"Battle of Locminé"},{"id":"wd-Q2889146","title":"Battle of Lofer","lat":47.585833333,"lng":12.693611111,"startYear":1809,"category":"war","wikiTitle":"Battle of Lofer"},{"id":"wd-Q2889149","title":"Battle of Llucmajor","lat":39.483333333,"lng":2.883333333,"startYear":1349,"category":"war","wikiTitle":"Battle of Llucmajor"},{"id":"wd-Q2889150","title":"Battle of Logandème","lat":14.317,"lng":-16.417,"startYear":1859,"category":"war","wikiTitle":"Battle of Logandème"},{"id":"wd-Q2889158","title":"Battle of Lone Jack","lat":38.87055556,"lng":-94.18805556,"startYear":1862,"category":"war","wikiTitle":"Battle of Lone Jack"},{"id":"wd-Q2889160","title":"Battle of Loon Lake","lat":54.04055556,"lng":-109.00083333,"startYear":1885,"category":"war","wikiTitle":"Battle of Loon Lake"},{"id":"wd-Q2889168","title":"Battle of Lopera","lat":37.945,"lng":-4.215,"startYear":1936,"category":"war","wikiTitle":"Battle of Lopera"},{"id":"wd-Q2889171","title":"Battle of Lutetia","lat":48.8566,"lng":2.35183,"startYear":383,"category":"war","wikiTitle":"Battle of Lutetia"},{"id":"wd-Q2889173","title":"Battle of Léogane","lat":18.510833333,"lng":-72.633888888,"startYear":1794,"category":"war","wikiTitle":"Battle of Léogane"},{"id":"wd-Q2889175","title":"Battle of Machecoul","lat":46.993888888,"lng":-1.821666666,"startYear":1793,"category":"war","wikiTitle":"Battle of Machecoul"},{"id":"wd-Q2889180","title":"First Battle of Machecoul","lat":46.993888888,"lng":-1.821666666,"startYear":1793,"category":"war","wikiTitle":"First Battle of Machecoul"},{"id":"wd-Q2889182","title":"Second Battle of Machecoul","lat":46.993888888,"lng":-1.821666666,"startYear":1793,"category":"war","wikiTitle":"Second Battle of Machecoul"},{"id":"wd-Q2889186","title":"Battle of Magnano","lat":45.4833,"lng":8.08333,"startYear":1799,"category":"war","wikiTitle":"Battle of Magnano"},{"id":"wd-Q2889188","title":"Battle of New House","lat":48.493333333,"lng":-1.292777777,"startYear":1796,"category":"war","wikiTitle":"Battle of New House"},{"id":"wd-Q2889191","title":"Battle of Magdhaba","lat":30.89,"lng":34.02,"startYear":1916,"category":"war","wikiTitle":"Battle of Magdhaba"},{"id":"wd-Q2889207","title":"Battle of Makryplagi","lat":37.17,"lng":22,"startYear":1263,"category":"war","wikiTitle":"Battle of Makryplagi"},{"id":"wd-Q2889228","title":"Battle of Marash","lat":37.5833,"lng":36.9333,"startYear":953,"category":"war","wikiTitle":"Battle of Marash"},{"id":"wd-Q2889240","title":"Battle of María","lat":41.5522,"lng":-0.99194,"startYear":1809,"category":"war","wikiTitle":"Battle of María"},{"id":"wd-Q2889251","title":"Battle of Marianna","lat":30.77638889,"lng":-85.23805556,"startYear":1864,"category":"war","wikiTitle":"Battle of Marianna"},{"id":"wd-Q2889252","title":"Battle of Mărășești","lat":45.88,"lng":27.1348,"startYear":1917,"category":"war","wikiTitle":"Battle of Mărășești"},{"id":"wd-Q2889262","title":"Battle of Marino","lat":41.766666666,"lng":12.666666666,"startYear":1379,"category":"war","wikiTitle":"Battle of Marino"},{"id":"wd-Q2889263","title":"Battle of Marjayoun","lat":33.359166666,"lng":35.588333333,"startYear":2006,"category":"war","wikiTitle":"Battle of Marjayoun"},{"id":"wd-Q2889266","title":"Battle of Marmelade","lat":19.517,"lng":-72.35,"startYear":1793,"category":"war","wikiTitle":"Battle of Marmelade"},{"id":"wd-Q2889268","title":"Battle of Marmiton River","lat":37.8717,"lng":-94.6153,"startYear":1864,"category":"war","wikiTitle":"Battle of Marmiton River"},{"id":"wd-Q2889275","title":"Battle of Martigné-Ferchaud","lat":47.827777777,"lng":-1.318333333,"startYear":1795,"category":"war","wikiTitle":"Battle of Martigné-Ferchaud"},{"id":"wd-Q2889282","title":"Battle of Martorell","lat":41.47583333,"lng":1.93166667,"startYear":1641,"category":"war","wikiTitle":"Battle of Martorell"},{"id":"wd-Q2889283","title":"First Battle of Maryang-san","lat":38.135,"lng":126.920833333,"startYear":1951,"category":"war","wikiTitle":"First Battle of Maryang-san"},{"id":"wd-Q2889287","title":"Battle of Maroun al-Ras","lat":33.088888888,"lng":35.426666666,"startYear":2006,"category":"war","wikiTitle":"Battle of Maroun al-Ras"},{"id":"wd-Q2889289","title":"Battle of Mas Deu","lat":42.6125,"lng":2.80917,"startYear":1793,"category":"war","wikiTitle":"Battle of Mas Deu"},{"id":"wd-Q2889297","title":"Battle of Mazagran","lat":35.895555555,"lng":0.071388888,"startYear":1840,"category":"war","wikiTitle":"Battle of Mazagran"},{"id":"wd-Q2243653","title":"Battle of Resaena","lat":36.85,"lng":40.0667,"startYear":243,"category":"war","wikiTitle":"Battle of Resaena"},{"id":"wd-Q2245714","title":"Battle of Buffington Island","lat":39.0025,"lng":-81.775,"startYear":1863,"category":"war","wikiTitle":"Battle of Buffington Island"},{"id":"wd-Q2246615","title":"Battle of Brunanburh","lat":53.796373,"lng":-2.257319,"startYear":937,"category":"war","wikiTitle":"Battle of Brunanburh"},{"id":"wd-Q2248041","title":"Battle of Casalecchio","lat":44.483333333,"lng":11.283333333,"startYear":1402,"category":"war","wikiTitle":"Battle of Casalecchio"},{"id":"wd-Q2249697","title":"Battle of Colle Val d'Elsa","lat":43.413,"lng":11.131,"startYear":1269,"category":"war","wikiTitle":"Battle of Colle Val d'Elsa"},{"id":"wd-Q2253305","title":"Battle of Richmond","lat":37.6848,"lng":-84.2594,"startYear":1862,"category":"war","wikiTitle":"Battle of Richmond"},{"id":"wd-Q2253682","title":"Battle of Tettenhall","lat":52.583333,"lng":-2.133333,"startYear":910,"category":"war","wikiTitle":"Battle of Tettenhall"},